Product,Blackbox flight data recorder by Nicholas Sherlock,,,,,,,,,,
firmwareType,5,,,,,,,,,,
firmware,5,,,,,,,,,,
firmwarePatch,0,,,,,,,,,,
firmwareVersion,5.0.0,,,,,,,,,,
Firmware revision,Indiflight 5.0.0 (ad3dab60c) STM32H743,,,,,,,,,,
Firmware date,Oct 18 2023 11:35:06,,,,,,,,,,
Board information,MTKS MATEKH743,,,,,,,,,,
Log start datetime,0000-01-01T00:00:00.000+00:00,,,,,,,,,,
Craft name,,,,,,,,,,,
frameIntervalI,64,,,,,,,,,,
frameIntervalPNum,1,,,,,,,,,,
frameIntervalPDenom,4,,,,,,,,,,
minthrottle,1070,,,,,,,,,,
maxthrottle,2000,,,,,,,,,,
gyroScale,1.74532925199433E-08,,,,,,,,,,
motorOutput,"0,0",,,,,,,,,,
acc_1G,2048,,,,,,,,,,
vbatscale,110,,,,,,,,,,
vbatmincellvoltage,330,,,,,,,,,,
vbatwarningcellvoltage,350,,,,,,,,,,
vbatmaxcellvoltage,430,,,,,,,,,,
vbatref,1657,,,,,,,,,,
currentMeterOffset,0,,,,,,,,,,
currentMeterScale,250,,,,,,,,,,
looptime,125,,,,,,,,,,
gyro_sync_denom,1,,,,,,,,,,
pid_process_denom,4,,,,,,,,,,
thrMid,50,,,,,,,,,,
thrExpo,0,,,,,,,,,,
tpa_mode,1,,,,,,,,,,
tpa_rate,65,,,,,,,,,,
tpa_breakpoint,1350,,,,,,,,,,
rc_rates,"7,7,7",,,,,,,,,,
rc_expo,"0,0,0",,,,,,,,,,
rates,"67,67,40",,,,,,,,,,
rate_limits,"1998,1998,1998",,,,,,,,,,
rollPID,"45,80,40,30,120",,,,,,,,,,
pitchPID,"47,84,46,34,125",,,,,,,,,,
yawPID,"45,80,0,0,120",,,,,,,,,,
levelPID,"50,50,75",,,,,,,,,,
magPID,"40,,",,,,,,,,,,
d_min_gain,37,,,,,,,,,,
d_min_advance,20,,,,,,,,,,
dterm_filter_type,0,,,,,,,,,,
dterm_lpf_hz,22,,,,,,,,,,
dterm_lpf_dyn_hz,150,,,,,,,,,,
dterm_filter2_type,0,,,,,,,,,,
dterm_lpf2_hz,45,,,,,,,,,,
yaw_lpf_hz,0,,,,,,,,,,
dterm_notch_hz,0,,,,,,,,,,
dterm_notch_cutoff,0,,,,,,,,,,
itermWindupPointPercent,85,,,,,,,,,,
iterm_relax,1,,,,,,,,,,
iterm_relax_type,1,,,,,,,,,,
iterm_relax_cutoff,15,,,,,,,,,,
pidAtMinThrottle,1,,,,,,,,,,
anti_gravity_gain,80,,,,,,,,,,
abs_control_gain,0,,,,,,,,,,
use_integrated_yaw,0,,,,,,,,,,
ff_transition,0,,,,,,,,,,
ff_averaging,0,,,,,,,,,,
ff_smooth_factor,25,,,,,,,,,,
ff_jitter_factor,7,,,,,,,,,,
ff_boost,15,,,,,,,,,,
ff_max_rate_limit,90,,,,,,,,,,
yawRateAccelLimit,0,,,,,,,,,,
rateAccelLimit,0,,,,,,,,,,
pidSumLimit,500,,,,,,,,,,
pidSumLimitYaw,400,,,,,,,,,,
deadband,0,,,,,,,,,,
yaw_deadband,0,,,,,,,,,,
gyro_lpf,0,,,,,,,,,,
gyro_soft_type,0,,,,,,,,,,
gyro_lowpass_hz,75,,,,,,,,,,
gyro_lowpass_dyn_hz,500,,,,,,,,,,
gyro_soft2_type,0,,,,,,,,,,
gyro_lowpass2_hz,150,,,,,,,,,,
gyro_notch_hz,"0,0",,,,,,,,,,
gyro_notch_cutoff,"0,0",,,,,,,,,,
gyro_to_use,0,,,,,,,,,,
dyn_notch_max_hz,600,,,,,,,,,,
dyn_notch_count,0,,,,,,,,,,
dyn_notch_q,300,,,,,,,,,,
dyn_notch_min_hz,100,,,,,,,,,,
dshot_bidir,0,,,,,,,,,,
motor_poles,12,,,,,,,,,,
gyro_rpm_notch_harmonics,0,,,,,,,,,,
gyro_rpm_notch_q,500,,,,,,,,,,
gyro_rpm_notch_min,60,,,,,,,,,,
rpm_filter_fade_range_hz,50,,,,,,,,,,
rpm_notch_lpf,150,,,,,,,,,,
acc_lpf_hz,2500,,,,,,,,,,
acc_hardware,0,,,,,,,,,,
baro_hardware,0,,,,,,,,,,
gyro_cal_on_first_arm,0,,,,,,,,,,
airmode_activate_throttle,25,,,,,,,,,,
serialrx_provider,2,,,,,,,,,,
unsynced_fast_pwm,0,,,,,,,,,,
fast_pwm_protocol,9,,,,,,,,,,
motor_pwm_rate,480,,,,,,,,,,
digitalIdleOffset,550,,,,,,,,,,
debug_mode,0,,,,,,,,,,
features,272893064,,,,,,,,,,
rc_smoothing_mode,1,,,,,,,,,,
rc_smoothing_auto_factor_setpoint,30,,,,,,,,,,
rc_smoothing_auto_factor_throttle,30,,,,,,,,,,
rc_smoothing_feedforward_hz,0,,,,,,,,,,
rc_smoothing_setpoint_hz,0,,,,,,,,,,
rc_smoothing_throttle_hz,0,,,,,,,,,,
rc_smoothing_debug_axis,0,,,,,,,,,,
rc_smoothing_active_cutoffs_ff_sp_thr,"38,0,0",,,,,,,,,,
rc_smoothing_rx_average,0,,,,,,,,,,
rates_type,3,,,,,,,,,,
fields_disabled_mask,2677,,,,,,,,,,
blackbox_high_resolution,0,,,,,,,,,,
vbat_sag_compensation,0,,,,,,,,,,
dynamic_idle_min_rpm,0,,,,,,,,,,
dyn_idle_p_gain,50,,,,,,,,,,
dyn_idle_i_gain,50,,,,,,,,,,
dyn_idle_d_gain,50,,,,,,,,,,
dyn_idle_max_increase,150,,,,,,,,,,
simplified_pids_mode,2,,,,,,,,,,
simplified_master_multiplier,100,,,,,,,,,,
simplified_i_gain,100,,,,,,,,,,
simplified_d_gain,100,,,,,,,,,,
simplified_pi_gain,100,,,,,,,,,,
simplified_dmax_gain,100,,,,,,,,,,
simplified_feedforward_gain,100,,,,,,,,,,
simplified_pitch_d_gain,100,,,,,,,,,,
simplified_pitch_pi_gain,100,,,,,,,,,,
simplified_dterm_filter,1,,,,,,,,,,
simplified_dterm_filter_multiplier,30,,,,,,,,,,
simplified_gyro_filter,1,,,,,,,,,,
simplified_gyro_filter_multiplier,30,,,,,,,,,,
motor_output_limit,70,,,,,,,,,,
throttle_limit_type,0,,,,,,,,,,
throttle_limit_percent,100,,,,,,,,,,
throttle_boost,5,,,,,,,,,,
throttle_boost_cutoff,15,,,,,,,,,,
loopIteration,time,gyroADC[0],gyroADC[1],gyroADC[2],accSmooth[0],accSmooth[1],accSmooth[2],motor[0],motor[1],motor[2],motor[3]
0,1515038,0,0,0,17,-14,2044,0,0,0,0
4,1517038,0,0,0,17,-14,2044,0,0,0,0
8,1519019,0,0,0,17,-14,2044,0,0,0,0
12,1521019,0,0,0,17,-14,2044,0,0,0,0
16,1523019,0,0,0,16,-15,2044,0,0,0,0
20,1525044,0,0,0,16,-15,2044,0,0,0,0
24,1527044,0,0,0,16,-15,2044,0,0,0,0
28,1529044,0,0,0,16,-15,2044,0,0,0,0
32,1531015,0,0,0,16,-15,2044,0,0,0,0
36,1533015,0,0,0,16,-16,2044,0,0,0,0
40,1535015,0,0,0,17,-16,2044,0,0,0,0
44,1537015,0,0,0,17,-16,2044,0,0,0,0
48,1538995,0,0,0,17,-16,2044,0,0,0,0
52,1540995,0,0,0,17,-16,2044,0,0,0,0
56,1542995,0,0,0,18,-16,2044,0,0,0,0
60,1545020,0,0,0,18,-16,2044,0,0,0,0
64,1547021,0,0,0,18,-16,2044,0,0,0,0
68,1549020,0,0,0,18,-16,2045,0,0,0,0
72,1550991,0,0,0,17,-16,2045,0,0,0,0
76,1552991,0,0,0,17,-16,2045,0,0,0,0
80,1554991,0,0,0,17,-17,2045,0,0,0,0
84,1556972,0,0,0,17,-17,2044,0,0,0,0
88,1558972,0,0,0,17,-16,2044,0,0,0,0
92,1560972,0,0,0,17,-16,2044,0,0,0,0
96,1562997,0,0,0,17,-16,2044,0,0,0,0
100,1564997,0,0,0,17,-16,2044,0,0,0,0
104,1566997,0,0,0,17,-15,2044,0,0,0,0
108,1568968,0,0,0,17,-15,2045,0,0,0,0
112,1570968,0,0,0,16,-15,2045,0,0,0,0
116,1572968,0,0,0,15,-15,2045,0,0,0,0
120,1574948,0,0,0,15,-15,2045,0,0,0,0
124,1576948,0,0,0,15,-15,2045,0,0,0,0
128,1578948,0,0,0,15,-14,2044,0,0,0,0
132,1580973,0,0,0,15,-14,2044,0,0,0,0
136,1582973,0,0,0,15,-14,2044,0,0,0,0
140,1584973,0,0,0,15,-14,2044,0,0,0,0
144,1586944,0,0,0,15,-14,2044,0,0,0,0
148,1588944,0,0,0,15,-14,2044,0,0,0,0
152,1590944,0,0,0,15,-14,2044,0,0,0,0
156,1592944,0,0,0,15,-14,2044,0,0,0,0
160,1594925,0,0,0,15,-13,2044,0,0,0,0
164,1596925,0,0,0,15,-14,2045,0,0,0,0
168,1598925,0,0,0,15,-14,2045,0,0,0,0
172,1600951,0,0,0,15,-14,2044,0,0,0,0
176,1602951,0,0,0,15,-14,2044,0,0,0,0
180,1604951,0,0,0,15,-14,2043,0,0,0,0
184,1606922,0,0,0,15,-14,2044,0,0,0,0
188,1608922,0,0,0,14,-14,2044,0,0,0,0
192,1610922,0,0,0,15,-15,2044,0,0,0,0
196,1612900,0,0,0,15,-14,2044,0,0,0,0
200,1614900,0,0,0,15,-14,2045,0,0,0,0
204,1616900,0,0,0,15,-14,2045,0,0,0,0
208,1618923,0,0,0,16,-14,2044,0,0,0,0
212,1620923,0,0,0,16,-14,2044,0,0,0,0
216,1622923,0,0,0,16,-14,2044,0,0,0,0
220,1624899,0,0,0,16,-14,2044,0,0,0,0
224,1626899,0,0,0,17,-14,2044,0,0,0,0
228,1628899,0,0,0,17,-14,2044,0,0,0,0
232,1630879,0,0,0,17,-14,2044,0,0,0,0
236,1632879,0,0,0,16,-14,2044,0,0,0,0
240,1634879,0,0,0,16,-14,2044,0,0,0,0
244,1636905,0,0,0,16,-14,2044,0,0,0,0
248,1638904,0,0,0,16,-14,2044,0,0,0,0
252,1640905,0,0,0,16,-14,2044,0,0,0,0
256,1642875,0,0,0,16,-14,2044,0,0,0,0
260,1644875,0,0,0,16,-14,2043,0,0,0,0
264,1646875,0,0,0,16,-14,2043,0,0,0,0
268,1648856,0,0,0,16,-15,2043,0,0,0,0
272,1650856,0,0,0,16,-15,2043,0,0,0,0
276,1652856,0,0,0,16,-15,2043,0,0,0,0
280,1654856,0,0,0,16,-16,2043,0,0,0,0
284,1656881,0,0,0,17,-16,2043,0,0,0,0
288,1658881,0,0,0,16,-16,2043,0,0,0,0
292,1660881,0,0,0,16,-16,2043,0,0,0,0
296,1662852,0,0,0,16,-16,2044,0,0,0,0
300,1664852,0,0,0,16,-16,2044,0,0,0,0
304,1666852,0,0,0,16,-15,2044,0,0,0,0
308,1668832,0,0,0,17,-15,2044,0,0,0,0
312,1670832,0,0,0,17,-15,2044,0,0,0,0
316,1672832,0,0,0,17,-15,2044,0,0,0,0
320,1674858,0,0,0,16,-15,2044,0,0,0,0
324,1676858,0,0,0,16,-15,2045,0,0,0,0
328,1678858,0,0,0,17,-15,2045,0,0,0,0
332,1680828,0,0,0,16,-15,2045,0,0,0,0
336,1682828,0,0,0,16,-15,2045,0,0,0,0
340,1684828,0,0,0,16,-15,2045,0,0,0,0
344,1686809,0,0,0,16,-14,2045,0,0,0,0
348,1688809,0,0,0,16,-14,2045,0,0,0,0
352,1690809,0,0,0,15,-15,2045,0,0,0,0
356,1692834,0,0,0,16,-14,2045,0,0,0,0
360,1694834,0,0,0,16,-14,2044,0,0,0,0
364,1696834,0,0,0,15,-14,2044,0,0,0,0
368,1698805,0,0,0,15,-14,2044,0,0,0,0
372,1700805,0,0,0,15,-14,2045,0,0,0,0
376,1702805,0,0,0,15,-14,2045,0,0,0,0
380,1704785,0,0,0,15,-14,2045,0,0,0,0
384,1706785,0,0,0,15,-14,2045,0,0,0,0
388,1708785,0,0,0,16,-14,2045,0,0,0,0
392,1710785,0,0,0,16,-14,2045,0,0,0,0
396,1712811,0,0,0,16,-14,2045,0,0,0,0
400,1714811,0,0,0,16,-14,2044,0,0,0,0
404,1716811,0,0,0,17,-14,2044,0,0,0,0
408,1718781,0,0,0,17,-15,2045,0,0,0,0
412,1720781,0,0,0,17,-15,2044,0,0,0,0
416,1722781,0,0,0,17,-15,2044,0,0,0,0
420,1724762,0,0,0,17,-15,2044,0,0,0,0
424,1726762,0,0,0,17,-15,2044,0,0,0,0
428,1728762,0,0,0,18,-14,2044,0,0,0,0
432,1730787,0,0,0,17,-14,2044,0,0,0,0
436,1732787,0,0,0,17,-14,2044,0,0,0,0
440,1734787,0,0,0,17,-14,2044,0,0,0,0
444,1736758,0,0,0,18,-14,2045,0,0,0,0
448,1738758,0,0,0,18,-14,2045,0,0,0,0
452,1740758,0,0,0,18,-14,2045,0,0,0,0
456,1742738,0,0,0,17,-14,2045,0,0,0,0
460,1744738,0,0,0,17,-14,2045,0,0,0,0
464,1746738,0,0,0,17,-14,2045,0,0,0,0
468,1748764,0,0,0,17,-15,2044,0,0,0,0
472,1750764,0,0,0,17,-15,2044,0,0,0,0
476,1752764,0,0,0,16,-15,2045,0,0,0,0
480,1754734,0,0,0,16,-15,2045,0,0,0,0
484,1756734,0,0,0,16,-15,2044,0,0,0,0
488,1758734,0,0,0,16,-15,2045,0,0,0,0
492,1760715,0,0,0,16,-15,2045,0,0,0,0
496,1762715,0,0,0,16,-15,2045,0,0,0,0
500,1764715,0,0,0,16,-15,2044,0,0,0,0
504,1766740,0,0,0,16,-15,2044,0,0,0,0
508,1768740,0,0,0,16,-15,2044,0,0,0,0
512,1770740,0,0,0,16,-15,2044,0,0,0,0
516,1772740,0,0,0,16,-15,2044,0,0,0,0
520,1774711,0,0,0,16,-15,2045,0,0,0,0
524,1776711,0,0,0,15,-15,2045,0,0,0,0
528,1778711,0,0,0,15,-15,2045,0,0,0,0
532,1780691,0,0,0,15,-15,2045,0,0,0,0
536,1782691,0,0,0,15,-14,2044,0,0,0,0
540,1784691,0,0,0,16,-14,2045,0,0,0,0
544,1786717,0,0,0,16,-14,2045,0,0,0,0
548,1788717,0,0,0,16,-14,2045,0,0,0,0
552,1790717,0,0,0,16,-14,2045,0,0,0,0
556,1792687,0,0,0,16,-14,2045,0,0,0,0
560,1794687,0,0,0,16,-14,2045,0,0,0,0
564,1796687,0,0,0,16,-14,2045,0,0,0,0
568,1798668,0,0,0,16,-14,2045,0,0,0,0
572,1800668,0,0,0,16,-15,2045,0,0,0,0
576,1802668,0,0,0,17,-15,2045,0,0,0,0
580,1804693,0,0,0,17,-15,2045,0,0,0,0
584,1806693,0,0,0,17,-15,2045,0,0,0,0
588,1808693,0,0,0,18,-15,2045,0,0,0,0
592,1810664,0,0,0,17,-15,2045,0,0,0,0
596,1812664,0,0,0,17,-15,2044,0,0,0,0
600,1814664,0,0,0,17,-14,2044,0,0,0,0
604,1816644,0,0,0,17,-14,2045,0,0,0,0
608,1818644,0,0,0,17,-14,2044,0,0,0,0
612,1820644,0,0,0,17,-14,2044,0,0,0,0
616,1822671,0,0,0,17,-14,2044,0,0,0,0
620,1824671,0,0,0,16,-15,2044,0,0,0,0
624,1826671,0,0,0,16,-15,2044,0,0,0,0
628,1828642,0,0,0,15,-15,2044,0,0,0,0
632,1830642,0,0,0,15,-15,2044,0,0,0,0
636,1832642,0,0,0,15,-16,2045,0,0,0,0
640,1834642,0,0,0,15,-16,2045,0,0,0,0
644,1836622,0,0,0,15,-16,2046,0,0,0,0
648,1838622,0,0,0,15,-16,2046,0,0,0,0
652,1840622,0,0,0,15,-16,2046,0,0,0,0
656,1842644,0,0,0,15,-16,2046,0,0,0,0
660,1844644,0,0,0,15,-16,2045,0,0,0,0
664,1846644,0,0,0,15,-17,2045,0,0,0,0
668,1848619,0,0,0,15,-17,2045,0,0,0,0
672,1850619,0,0,0,15,-17,2045,0,0,0,0
676,1852619,0,0,0,15,-17,2044,0,0,0,0
680,1854599,0,0,0,15,-16,2044,0,0,0,0
684,1856599,0,0,0,15,-16,2044,0,0,0,0
688,1858599,0,0,0,16,-16,2045,0,0,0,0
692,1860625,0,0,0,16,-16,2045,0,0,0,0
696,1862625,0,0,0,16,-15,2044,0,0,0,0
700,1864625,0,0,0,16,-15,2044,0,0,0,0
704,1866595,0,0,0,16,-15,2044,0,0,0,0
708,1868595,0,0,0,16,-15,2045,0,0,0,0
712,1870595,0,0,0,16,-15,2045,0,0,0,0
716,1872576,0,0,0,16,-15,2045,0,0,0,0
720,1874576,0,0,0,17,-15,2045,0,0,0,0
724,1876576,0,0,0,17,-15,2045,0,0,0,0
728,1878601,0,0,0,16,-14,2046,0,0,0,0
732,1880601,0,0,0,16,-14,2046,0,0,0,0
736,1882601,0,0,0,16,-14,2046,0,0,0,0
740,1884572,0,0,0,16,-14,2046,0,0,0,0
744,1886572,0,0,0,16,-14,2046,0,0,0,0
748,1888572,0,0,0,16,-14,2045,0,0,0,0
752,1890572,0,0,0,16,-14,2045,0,0,0,0
756,1892552,0,0,0,16,-14,2045,0,0,0,0
760,1894552,0,0,0,16,-14,2044,0,0,0,0
764,1896552,0,0,0,16,-14,2045,0,0,0,0
768,1898578,0,0,0,16,-14,2044,0,0,0,0
772,1900578,0,0,0,16,-14,2045,0,0,0,0
776,1902578,0,0,0,16,-14,2045,0,0,0,0
780,1904548,0,0,0,16,-14,2044,0,0,0,0
784,1906548,0,0,0,16,-14,2044,0,0,0,0
788,1908548,0,0,0,16,-15,2044,0,0,0,0
792,1910529,0,0,0,16,-15,2044,0,0,0,0
796,1912529,0,0,0,17,-15,2044,0,0,0,0
800,1914529,0,0,0,17,-15,2044,0,0,0,0
804,1916554,0,0,0,16,-15,2044,0,0,0,0
808,1918554,0,0,0,16,-15,2044,0,0,0,0
812,1920554,0,0,0,16,-15,2044,0,0,0,0
816,1922525,0,0,0,16,-15,2044,0,0,0,0
820,1924525,0,0,0,16,-15,2044,0,0,0,0
824,1926525,0,0,0,16,-15,2043,0,0,0,0
828,1928505,0,0,0,16,-15,2043,0,0,0,0
832,1930505,0,0,0,16,-15,2043,0,0,0,0
836,1932505,0,0,0,16,-15,2043,0,0,0,0
840,1934531,0,0,0,16,-14,2043,0,0,0,0
844,1936531,0,0,0,16,-14,2044,0,0,0,0
848,1938531,0,0,0,16,-14,2044,0,0,0,0
852,1940502,0,0,0,16,-14,2045,0,0,0,0
856,1942501,0,0,0,15,-14,2045,0,0,0,0
860,1944501,0,0,0,16,-15,2045,0,0,0,0
864,1946482,0,0,0,16,-15,2045,0,0,0,0
868,1948482,0,0,0,16,-15,2045,0,0,0,0
872,1950482,0,0,0,16,-15,2044,0,0,0,0
876,1952482,0,0,0,16,-15,2044,0,0,0,0
880,1954507,0,0,0,16,-15,2045,0,0,0,0
884,1956507,0,0,0,16,-15,2045,0,0,0,0
888,1958507,0,0,0,16,-14,2045,0,0,0,0
892,1960478,0,0,0,16,-14,2045,0,0,0,0
896,1962478,0,0,0,16,-14,2045,0,0,0,0
900,1964478,0,0,0,16,-15,2045,0,0,0,0
904,1966458,0,0,0,16,-15,2044,0,0,0,0
908,1968458,0,0,0,16,-15,2044,0,0,0,0
912,1970458,0,0,0,16,-15,2043,0,0,0,0
916,1972484,0,0,0,16,-15,2044,0,0,0,0
920,1974484,0,0,0,16,-15,2044,0,0,0,0
924,1976484,0,0,0,16,-15,2044,0,0,0,0
928,1978455,0,0,0,16,-15,2044,0,0,0,0
932,1980455,0,0,0,16,-15,2044,0,0,0,0
936,1982455,0,0,0,16,-15,2044,0,0,0,0
940,1984435,0,0,0,16,-15,2044,0,0,0,0
944,1986435,0,0,0,16,-15,2045,0,0,0,0
948,1988435,0,0,0,16,-16,2044,0,0,0,0
952,1990460,0,0,0,16,-16,2044,0,0,0,0
956,1992460,0,0,0,16,-16,2044,0,0,0,0
960,1994460,0,0,0,16,-16,2044,0,0,0,0
964,1996431,0,0,0,16,-16,2045,0,0,0,0
968,1998431,0,0,0,16,-16,2045,0,0,0,0
972,2000431,0,0,0,16,-16,2045,0,0,0,0
976,2002411,0,0,0,16,-16,2045,0,0,0,0
980,2004411,0,0,0,16,-15,2046,0,0,0,0
984,2006411,0,0,0,16,-15,2045,0,0,0,0
988,2008411,0,0,0,16,-14,2045,0,0,0,0
992,2010437,0,0,0,15,-14,2045,0,0,0,0
996,2012437,0,0,0,16,-13,2045,0,0,0,0
1000,2014437,0,0,0,16,-13,2045,0,0,0,0
1004,2016408,0,0,0,17,-14,2045,0,0,0,0
1008,2018408,0,0,0,16,-14,2045,0,0,0,0
1012,2020408,0,0,0,16,-14,2045,0,0,0,0
1016,2022388,0,0,0,17,-14,2045,0,0,0,0
1020,2024388,0,0,0,17,-15,2045,0,0,0,0
1024,2026388,0,0,0,17,-15,2044,0,0,0,0
1028,2028413,0,0,0,17,-15,2044,0,0,0,0
1032,2030413,0,0,0,16,-14,2044,0,0,0,0
1036,2032413,0,0,0,16,-14,2044,0,0,0,0
1040,2034384,0,0,0,16,-14,2044,0,0,0,0
1044,2036384,0,0,0,16,-14,2044,0,0,0,0
1048,2038384,0,0,0,16,-14,2044,0,0,0,0
1052,2040365,0,0,0,16,-15,2044,0,0,0,0
1056,2042364,0,0,0,17,-15,2044,0,0,0,0
1060,2044365,0,0,0,16,-15,2044,0,0,0,0
1064,2046390,0,0,0,16,-15,2044,0,0,0,0
1068,2048390,0,0,0,16,-15,2044,0,0,0,0
1072,2050390,0,0,0,16,-15,2044,0,0,0,0
1076,2052361,0,0,0,15,-15,2044,0,0,0,0
1080,2054361,0,0,0,16,-15,2045,0,0,0,0
1084,2056361,0,0,0,16,-15,2045,0,0,0,0
1088,2058341,0,0,0,16,-15,2045,0,0,0,0
1092,2060341,0,0,0,16,-16,2045,0,0,0,0
1096,2062341,0,0,0,16,-16,2045,0,0,0,0
1100,2064366,0,0,0,16,-16,2045,0,0,0,0
1104,2066366,0,0,0,16,-16,2045,0,0,0,0
1108,2068366,0,0,0,16,-15,2045,0,0,0,0
1112,2070366,0,0,0,16,-15,2045,0,0,0,0
1116,2072337,0,0,0,16,-15,2045,0,0,0,0
1120,2074337,0,0,0,16,-15,2045,0,0,0,0
1124,2076337,0,0,0,16,-15,2045,0,0,0,0
1128,2078318,0,0,0,16,-15,2045,0,0,0,0
1132,2080318,0,0,0,16,-15,2045,0,0,0,0
1136,2082318,0,0,0,16,-15,2045,0,0,0,0
1140,2084343,0,0,0,16,-15,2045,0,0,0,0
1144,2086343,0,0,0,16,-15,2045,0,0,0,0
1148,2088343,0,0,0,17,-14,2045,0,0,0,0
1152,2090314,0,0,0,16,-15,2045,0,0,0,0
1156,2092314,0,0,0,16,-15,2045,0,0,0,0
1160,2094314,0,0,0,16,-16,2045,0,0,0,0
1164,2096294,0,0,0,15,-16,2045,0,0,0,0
1168,2098294,0,0,0,16,-16,2045,0,0,0,0
1172,2100294,0,0,0,15,-16,2045,0,0,0,0
1176,2102319,0,0,0,16,-16,2045,0,0,0,0
1180,2104319,0,0,0,16,-16,2045,0,0,0,0
1184,2106319,0,0,0,16,-15,2045,0,0,0,0
1188,2108290,0,0,0,16,-15,2044,0,0,0,0
1192,2110290,0,0,0,16,-16,2044,0,0,0,0
1196,2112290,0,0,0,16,-16,2044,0,0,0,0
1200,2114271,0,0,0,15,-16,2044,0,0,0,0
1204,2116271,0,0,0,15,-16,2044,0,0,0,0
1208,2118271,0,0,0,15,-15,2045,0,0,0,0
1212,2120296,0,0,0,15,-15,2045,0,0,0,0
1216,2122296,0,0,0,15,-15,2045,0,0,0,0
1220,2124296,0,0,0,15,-15,2045,0,0,0,0
1224,2126267,0,0,0,15,-15,2045,0,0,0,0
1228,2128267,0,0,0,16,-15,2045,0,0,0,0
1232,2130267,0,0,0,16,-15,2045,0,0,0,0
1236,2132267,0,0,0,16,-15,2045,0,0,0,0
1240,2134246,0,0,0,16,-15,2045,0,0,0,0
1244,2136246,0,0,0,16,-15,2045,0,0,0,0
1248,2138246,0,0,0,16,-15,2045,0,0,0,0
1252,2140269,0,0,0,16,-16,2045,0,0,0,0
1256,2142269,0,0,0,16,-16,2045,0,0,0,0
1260,2144269,0,0,0,16,-15,2045,0,0,0,0
1264,2146243,0,0,0,16,-15,2045,0,0,0,0
1268,2148243,0,0,0,16,-15,2045,0,0,0,0
1272,2150243,0,0,0,16,-15,2045,0,0,0,0
1276,2152224,0,0,0,16,-16,2044,0,0,0,0
1280,2154224,0,0,0,16,-16,2044,0,0,0,0
1284,2156224,0,0,0,16,-16,2044,0,0,0,0
1288,2158249,0,0,0,16,-16,2043,0,0,0,0
1292,2160249,0,0,0,16,-15,2043,0,0,0,0
1296,2162249,0,0,0,16,-15,2043,0,0,0,0
1300,2164220,0,0,0,16,-15,2044,0,0,0,0
1304,2166220,0,0,0,16,-15,2044,0,0,0,0
1308,2168220,0,0,0,15,-15,2044,0,0,0,0
1312,2170200,0,0,0,15,-15,2044,0,0,0,0
1316,2172200,0,0,0,15,-16,2044,0,0,0,0
1320,2174200,0,0,0,15,-16,2044,0,0,0,0
1324,2176225,0,0,0,15,-16,2044,0,0,0,0
1328,2178225,0,0,0,15,-15,2044,0,0,0,0
1332,2180225,0,0,0,15,-15,2044,0,0,0,0
1336,2182196,0,0,0,15,-14,2044,0,0,0,0
1340,2184196,0,0,0,15,-14,2044,0,0,0,0
1344,2186196,0,0,0,15,-14,2044,0,0,0,0
1348,2188196,0,0,0,15,-14,2044,0,0,0,0
1352,2190177,0,0,0,16,-14,2044,0,0,0,0
1356,2192177,0,0,0,16,-14,2044,0,0,0,0
1360,2194177,0,0,0,16,-14,2044,0,0,0,0
1364,2196202,0,0,0,16,-14,2044,0,0,0,0
1368,2198202,0,0,0,16,-14,2044,0,0,0,0
1372,2200202,0,0,0,17,-14,2044,0,0,0,0
1376,2202173,0,0,0,17,-14,2045,0,0,0,0
1380,2204173,0,0,0,16,-14,2045,0,0,0,0
1384,2206173,0,0,0,16,-14,2045,0,0,0,0
1388,2208153,0,0,0,17,-14,2045,0,0,0,0
1392,2210153,0,0,0,17,-15,2045,0,0,0,0
1396,2212153,0,0,0,17,-15,2045,0,0,0,0
1400,2214178,0,0,0,17,-14,2044,0,0,0,0
1404,2216178,0,0,0,17,-14,2044,0,0,0,0
1408,2218178,0,0,0,17,-15,2044,0,0,0,0
1412,2220149,0,0,0,17,-15,2044,0,0,0,0
1416,2222149,0,0,0,17,-15,2044,0,0,0,0
1420,2224149,0,0,0,16,-15,2044,0,0,0,0
1424,2226130,0,0,0,16,-16,2044,0,0,0,0
1428,2228130,0,0,0,17,-16,2044,0,0,0,0
1432,2230130,0,0,0,17,-17,2044,0,0,0,0
1436,2232155,0,0,0,17,-17,2043,0,0,0,0
1440,2234155,0,0,0,17,-17,2043,0,0,0,0
1444,2236155,0,0,0,17,-17,2043,0,0,0,0
1448,2238126,0,0,0,17,-17,2043,0,0,0,0
1452,2240126,0,0,0,17,-17,2044,0,0,0,0
1456,2242126,0,0,0,16,-17,2044,0,0,0,0
1460,2244106,0,0,0,16,-17,2044,0,0,0,0
1464,2246106,0,0,0,16,-17,2044,0,0,0,0
1468,2248106,0,0,0,16,-17,2044,0,0,0,0
1472,2250106,0,0,0,16,-16,2044,0,0,0,0
1476,2252131,0,0,0,15,-16,2044,0,0,0,0
1480,2254131,0,0,0,15,-15,2044,0,0,0,0
1484,2256131,0,0,0,15,-15,2044,0,0,0,0
1488,2258102,0,0,0,15,-14,2045,0,0,0,0
1492,2260102,0,0,0,15,-14,2045,0,0,0,0
1496,2262102,0,0,0,15,-13,2044,0,0,0,0
1500,2264083,0,0,0,15,-13,2045,0,0,0,0
1504,2266083,0,0,0,15,-13,2045,0,0,0,0
1508,2268083,0,0,0,16,-13,2045,0,0,0,0
1512,2270108,0,0,0,16,-14,2045,0,0,0,0
1516,2272108,0,0,0,16,-14,2045,0,0,0,0
1520,2274108,0,0,0,15,-13,2045,0,0,0,0
1524,2276079,0,0,0,15,-13,2045,0,0,0,0
1528,2278079,0,0,0,15,-12,2045,0,0,0,0
1532,2280079,0,0,0,15,-13,2045,0,0,0,0
1536,2282059,0,0,0,15,-13,2045,0,0,0,0
1540,2284059,0,0,0,15,-13,2045,0,0,0,0
1544,2286059,0,0,0,15,-13,2045,0,0,0,0
1548,2288084,0,0,0,14,-14,2044,0,0,0,0
1552,2290084,0,0,0,14,-14,2044,0,0,0,0
1556,2292084,0,0,0,14,-14,2044,0,0,0,0
1560,2294055,0,0,0,15,-15,2044,0,0,0,0
1564,2296055,0,0,0,15,-15,2044,0,0,0,0
1568,2298055,0,0,0,15,-15,2044,0,0,0,0
1572,2300036,0,0,0,14,-15,2044,0,0,0,0
1576,2302036,0,0,0,14,-15,2044,0,0,0,0
1580,2304036,0,0,0,14,-15,2044,0,0,0,0
1584,2306036,0,0,0,15,-16,2044,0,0,0,0
1588,2308061,0,0,0,15,-16,2044,0,0,0,0
1592,2310061,0,0,0,15,-16,2044,0,0,0,0
1596,2312061,0,0,0,15,-15,2044,0,0,0,0
1600,2314032,0,0,0,16,-16,2044,0,0,0,0
1604,2316032,0,0,0,16,-16,2045,0,0,0,0
1608,2318032,0,0,0,16,-16,2045,0,0,0,0
1612,2320012,0,0,0,16,-16,2045,0,0,0,0
1616,2322012,0,0,0,16,-16,2045,0,0,0,0
1620,2324012,0,0,0,16,-16,2045,0,0,0,0
1624,2326037,0,0,0,17,-16,2045,0,0,0,0
1628,2328037,0,0,0,17,-16,2044,0,0,0,0
1632,2330037,0,0,0,18,-16,2045,0,0,0,0
1636,2332009,0,0,0,18,-16,2045,0,0,0,0
1640,2334009,0,0,0,18,-16,2045,0,0,0,0
1644,2336009,0,0,0,18,-16,2045,0,0,0,0
1648,2337989,0,0,0,18,-16,2045,0,0,0,0
1652,2339989,0,0,0,18,-16,2045,0,0,0,0
1656,2341989,0,0,0,18,-16,2046,0,0,0,0
1660,2344014,0,0,0,18,-16,2046,0,0,0,0
1664,2346014,0,0,0,18,-16,2046,0,0,0,0
1668,2348014,0,0,0,18,-16,2045,0,0,0,0
1672,2349985,0,0,0,18,-16,2045,0,0,0,0
1676,2351985,0,0,0,18,-17,2045,0,0,0,0
1680,2353985,0,0,0,18,-17,2045,0,0,0,0
1684,2355966,0,0,0,17,-16,2045,0,0,0,0
1688,2357966,0,0,0,17,-16,2044,0,0,0,0
1692,2359966,0,0,0,17,-16,2044,0,0,0,0
1696,2361991,0,0,0,17,-16,2044,0,0,0,0
1700,2363991,0,0,0,17,-15,2044,0,0,0,0
1704,2365991,0,0,0,17,-15,2044,0,0,0,0
1708,2367991,0,0,0,17,-16,2044,0,0,0,0
1712,2369962,0,0,0,17,-16,2044,0,0,0,0
1716,2371962,0,0,0,17,-15,2044,0,0,0,0
1720,2373962,0,0,0,17,-15,2044,0,0,0,0
1724,2375942,0,0,0,17,-15,2044,0,0,0,0
1728,2377942,0,0,0,17,-15,2044,0,0,0,0
1732,2379942,0,0,0,17,-15,2044,0,0,0,0
1736,2381968,0,0,0,17,-14,2045,0,0,0,0
1740,2383967,0,0,0,16,-14,2045,0,0,0,0
1744,2385967,0,0,0,16,-14,2046,0,0,0,0
1748,2387938,0,0,0,16,-14,2046,0,0,0,0
1752,2389938,0,0,0,16,-13,2046,0,0,0,0
1756,2391938,0,0,0,16,-13,2046,0,0,0,0
1760,2393919,0,0,0,16,-13,2046,0,0,0,0
1764,2395919,0,0,0,17,-13,2046,0,0,0,0
1768,2397919,0,0,0,17,-13,2045,0,0,0,0
1772,2399944,0,0,0,16,-13,2045,0,0,0,0
1776,2401944,0,0,0,16,-13,2045,0,0,0,0
1780,2403944,0,0,0,16,-13,2045,0,0,0,0
1784,2405915,0,0,0,16,-13,2044,0,0,0,0
1788,2407915,0,0,0,16,-13,2044,0,0,0,0
1792,2409915,0,0,0,16,-13,2044,0,0,0,0
1796,2411895,0,0,0,16,-13,2044,0,0,0,0
1800,2413895,0,0,0,16,-14,2044,0,0,0,0
1804,2415895,0,0,0,16,-14,2044,0,0,0,0
1808,2417921,0,0,0,16,-14,2044,0,0,0,0
1812,2419921,0,0,0,16,-14,2044,0,0,0,0
1816,2421921,0,0,0,15,-14,2044,0,0,0,0
1820,2423891,0,0,0,16,-13,2044,0,0,0,0
1824,2425891,0,0,0,16,-13,2045,0,0,0,0
1828,2427891,0,0,0,16,-13,2045,0,0,0,0
1832,2429891,0,0,0,16,-12,2044,0,0,0,0
1836,2431871,0,0,0,16,-13,2044,0,0,0,0
1840,2433871,0,0,0,16,-13,2044,0,0,0,0
1844,2435871,0,0,0,16,-13,2044,0,0,0,0
1848,2437893,0,0,0,17,-13,2044,0,0,0,0
1852,2439893,0,0,0,17,-14,2045,0,0,0,0
1856,2441893,0,0,0,17,-14,2045,0,0,0,0
1860,2443868,0,0,0,17,-14,2045,0,0,0,0
1864,2445868,0,0,0,17,-14,2045,0,0,0,0
1868,2447868,0,0,0,17,-15,2045,0,0,0,0
1872,2449848,0,0,0,18,-15,2044,0,0,0,0
1876,2451848,0,0,0,18,-16,2044,0,0,0,0
1880,2453848,0,0,0,18,-16,2044,0,0,0,0
1884,2455874,0,0,0,18,-16,2044,0,0,0,0
1888,2457874,0,0,0,18,-16,2045,0,0,0,0
1892,2459874,0,0,0,17,-16,2045,0,0,0,0
1896,2461844,0,0,0,17,-16,2046,0,0,0,0
1900,2463844,0,0,0,17,-16,2046,0,0,0,0
1904,2465844,0,0,0,16,-16,2046,0,0,0,0
1908,2467825,0,0,0,16,-16,2045,0,0,0,0
1912,2469825,0,0,0,16,-16,2045,0,0,0,0
1916,2471825,0,0,0,16,-16,2044,0,0,0,0
1920,2473850,0,0,0,17,-16,2044,0,0,0,0
1924,2475850,0,0,0,17,-17,2044,0,0,0,0
1928,2477850,0,0,0,17,-17,2044,0,0,0,0
1932,2479821,0,0,0,18,-17,2044,0,0,0,0
1936,2481821,0,0,0,18,-16,2045,0,0,0,0
1940,2483821,0,0,0,18,-16,2045,0,0,0,0
1944,2485821,0,0,0,17,-16,2045,0,0,0,0
1948,2487801,0,0,0,17,-16,2045,0,0,0,0
1952,2489801,0,0,0,17,-16,2045,0,0,0,0
1956,2491801,0,0,0,17,-15,2045,0,0,0,0
1960,2493827,0,0,0,16,-15,2045,0,0,0,0
1964,2495827,0,0,0,16,-15,2045,0,0,0,0
1968,2497827,0,0,0,16,-15,2045,0,0,0,0
1972,2499797,0,0,0,16,-15,2045,0,0,0,0
1976,2501797,0,0,0,15,-15,2045,0,0,0,0
1980,2503797,0,0,0,15,-15,2045,0,0,0,0
1984,2505778,0,0,0,15,-14,2045,0,0,0,0
1988,2507778,0,0,0,16,-14,2045,0,0,0,0
1992,2509778,0,0,0,15,-13,2046,0,0,0,0
1996,2511803,0,0,0,16,-13,2045,0,0,0,0
2000,2513803,0,0,0,16,-13,2045,0,0,0,0
2004,2515803,0,0,0,16,-13,2045,0,0,0,0
2008,2517774,0,0,0,16,-13,2045,0,0,0,0
2012,2519774,0,0,0,16,-13,2045,0,0,0,0
2016,2521774,0,0,0,15,-12,2045,0,0,0,0
2020,2523754,0,0,0,16,-12,2045,0,0,0,0
2024,2525754,0,0,0,16,-12,2044,0,0,0,0
2028,2527754,0,0,0,16,-13,2044,0,0,0,0
2032,2529780,0,0,0,16,-14,2043,0,0,0,0
2036,2531780,0,0,0,16,-14,2043,0,0,0,0
2040,2533780,0,0,0,16,-14,2043,0,0,0,0
2044,2535750,0,0,0,16,-15,2043,0,0,0,0
2048,2537750,0,0,0,16,-14,2044,0,0,0,0
2052,2539750,0,0,0,15,-15,2044,0,0,0,0
2056,2541731,0,0,0,15,-15,2044,0,0,0,0
2060,2543731,0,0,0,15,-15,2045,0,0,0,0
2064,2545731,0,0,0,15,-15,2045,0,0,0,0
2068,2547731,0,0,0,16,-14,2045,0,0,0,0
2072,2549756,0,0,0,16,-15,2044,0,0,0,0
2076,2551755,0,0,0,17,-15,2044,0,0,0,0
2080,2553755,0,0,0,17,-15,2044,0,0,0,0
2084,2555726,0,0,0,17,-14,2044,0,0,0,0
2088,2557726,0,0,0,17,-14,2043,0,0,0,0
2092,2559726,0,0,0,17,-15,2043,0,0,0,0
2096,2561707,0,0,0,16,-15,2043,0,0,0,0
2100,2563707,0,0,0,16,-15,2043,0,0,0,0
2104,2565707,0,0,0,16,-16,2043,0,0,0,0
2108,2567732,0,0,0,16,-16,2044,0,0,0,0
2112,2569732,0,0,0,17,-17,2044,0,0,0,0
2116,2571732,0,0,0,17,-17,2044,0,0,0,0
2120,2573703,0,0,0,16,-16,2044,0,0,0,0
2124,2575703,0,0,0,17,-16,2044,0,0,0,0
2128,2577703,0,0,0,17,-16,2044,0,0,0,0
2132,2579683,0,0,0,16,-16,2045,0,0,0,0
2136,2581683,0,0,0,16,-17,2045,0,0,0,0
2140,2583683,0,0,0,16,-16,2045,0,0,0,0
2144,2585708,0,0,0,16,-16,2045,0,0,0,0
2148,2587708,0,0,0,16,-17,2045,0,0,0,0
2152,2589708,0,0,0,16,-17,2044,0,0,0,0
2156,2591679,0,0,0,16,-17,2044,0,0,0,0
2160,2593679,0,0,0,17,-17,2044,0,0,0,0
2164,2595679,0,0,0,17,-17,2044,0,0,0,0
2168,2597661,0,0,0,17,-16,2044,0,0,0,0
2172,2599660,0,0,0,17,-16,2044,0,0,0,0
2176,2601660,0,0,0,17,-16,2044,0,0,0,0
2180,2603660,0,0,0,17,-16,2044,0,0,0,0
2184,2605685,0,0,0,16,-16,2044,0,0,0,0
2188,2607685,0,0,0,16,-16,2044,0,0,0,0
2192,2609685,0,0,0,16,-15,2045,0,0,0,0
2196,2611656,0,0,0,16,-15,2045,0,0,0,0
2200,2613656,0,0,0,16,-14,2045,0,0,0,0
2204,2615656,0,0,0,16,-14,2045,0,0,0,0
2208,2617636,0,0,0,16,-14,2045,0,0,0,0
2212,2619636,0,0,0,16,-14,2044,0,0,0,0
2216,2621636,0,0,0,16,-14,2044,0,0,0,0
2220,2623661,0,0,0,16,-14,2044,0,0,0,0
2224,2625661,0,0,0,16,-14,2044,0,0,0,0
2228,2627661,0,0,0,16,-14,2044,0,0,0,0
2232,2629633,0,0,0,16,-14,2044,0,0,0,0
2236,2631632,0,0,0,16,-14,2044,0,0,0,0
2240,2633632,0,0,0,16,-14,2044,0,0,0,0
2244,2635614,0,0,0,15,-14,2044,0,0,0,0
2248,2637613,0,0,0,15,-13,2044,0,0,0,0
2252,2639613,0,0,0,15,-13,2044,0,0,0,0
2256,2641638,0,0,0,15,-13,2044,0,0,0,0
2260,2643638,0,0,0,15,-14,2044,0,0,0,0
2264,2645638,0,0,0,15,-14,2044,0,0,0,0
2268,2647609,0,0,0,15,-14,2044,0,0,0,0
2272,2649609,0,0,0,15,-14,2044,0,0,0,0
2276,2651609,0,0,0,16,-14,2044,0,0,0,0
2280,2653590,0,0,0,16,-14,2044,0,0,0,0
2284,2655589,0,0,0,15,-15,2044,0,0,0,0
2288,2657590,0,0,0,15,-15,2045,0,0,0,0
2292,2659614,0,0,0,15,-15,2045,0,0,0,0
2296,2661614,0,0,0,15,-15,2045,0,0,0,0
2300,2663614,0,0,0,15,-15,2045,0,0,0,0
2304,2665615,0,0,0,15,-15,2045,0,0,0,0
2308,2667586,0,0,0,15,-15,2045,0,0,0,0
2312,2669586,0,0,0,15,-15,2045,0,0,0,0
2316,2671586,0,0,0,15,-15,2045,0,0,0,0
2320,2673566,0,0,0,15,-15,2045,0,0,0,0
2324,2675566,0,0,0,15,-15,2045,0,0,0,0
2328,2677566,0,0,0,15,-15,2045,0,0,0,0
2332,2679591,0,0,0,16,-15,2045,0,0,0,0
2336,2681591,0,0,0,16,-15,2045,0,0,0,0
2340,2683591,0,0,0,16,-15,2045,0,0,0,0
2344,2685562,0,0,0,16,-15,2045,0,0,0,0
2348,2687562,0,0,0,17,-15,2044,0,0,0,0
2352,2689562,0,0,0,17,-15,2044,0,0,0,0
2356,2691543,0,0,0,17,-15,2044,0,0,0,0
2360,2693543,0,0,0,16,-15,2044,0,0,0,0
2364,2695543,0,0,0,17,-15,2044,0,0,0,0
2368,2697568,0,0,0,17,-15,2044,0,0,0,0
2372,2699568,0,0,0,17,-15,2045,0,0,0,0
2376,2701568,0,0,0,17,-15,2045,0,0,0,0
2380,2703539,0,0,0,17,-15,2045,0,0,0,0
2384,2705539,0,0,0,16,-16,2045,0,0,0,0
2388,2707539,0,0,0,16,-16,2045,0,0,0,0
2392,2709519,0,0,0,16,-16,2045,0,0,0,0
2396,2711519,0,0,0,17,-16,2045,0,0,0,0
2400,2713519,0,0,0,17,-16,2045,0,0,0,0
2404,2715545,0,0,0,17,-16,2044,0,0,0,0
2408,2717545,0,0,0,17,-16,2044,0,0,0,0
2412,2719545,0,0,0,17,-16,2044,0,0,0,0
2416,2721515,0,0,0,16,-15,2044,0,0,0,0
2420,2723515,0,0,0,16,-15,2043,0,0,0,0
2424,2725515,0,0,0,16,-15,2044,0,0,0,0
2428,2727515,0,0,0,17,-15,2044,0,0,0,0
2432,2729495,0,0,0,16,-15,2044,0,0,0,0
2436,2731495,0,0,0,16,-15,2044,0,0,0,0
2440,2733495,0,0,0,16,-15,2044,0,0,0,0
2444,2735517,0,0,0,17,-15,2045,0,0,0,0
2448,2737517,0,0,0,17,-15,2045,0,0,0,0
2452,2739517,0,0,0,17,-15,2045,0,0,0,0
2456,2741492,0,0,0,16,-15,2045,0,0,0,0
2460,2743492,0,0,0,16,-15,2044,0,0,0,0
2464,2745492,0,0,0,16,-15,2044,0,0,0,0
2468,2747472,0,0,0,16,-15,2044,0,0,0,0
2472,2749472,0,0,0,17,-15,2044,0,0,0,0
2476,2751472,0,0,0,17,-15,2044,0,0,0,0
2480,2753498,0,0,0,17,-15,2044,0,0,0,0
2484,2755498,0,0,0,17,-16,2044,0,0,0,0
2488,2757498,0,0,0,17,-16,2044,0,0,0,0
2492,2759468,0,0,0,16,-16,2044,0,0,0,0
2496,2761468,0,0,0,16,-16,2044,0,0,0,0
2500,2763468,0,0,0,16,-16,2044,0,0,0,0
2504,2765449,0,0,0,16,-16,2045,0,0,0,0
2508,2767449,0,0,0,16,-16,2045,0,0,0,0
2512,2769449,0,0,0,16,-15,2044,0,0,0,0
2516,2771474,0,0,0,16,-15,2044,0,0,0,0
2520,2773474,0,0,0,16,-15,2044,0,0,0,0
2524,2775474,0,0,0,16,-15,2044,0,0,0,0
2528,2777445,0,0,0,15,-15,2044,0,0,0,0
2532,2779445,0,0,0,15,-15,2044,0,0,0,0
2536,2781445,0,0,0,15,-15,2044,0,0,0,0
2540,2783445,0,0,0,16,-14,2044,0,0,0,0
2544,2785425,0,0,0,16,-14,2044,0,0,0,0
2548,2787425,0,0,0,16,-14,2044,0,0,0,0
2552,2789425,0,0,0,16,-14,2045,0,0,0,0
2556,2791451,0,0,0,16,-14,2045,0,0,0,0
2560,2793451,0,0,0,16,-14,2045,0,0,0,0
2564,2795451,0,0,0,17,-14,2044,0,0,0,0
2568,2797421,0,0,0,17,-14,2045,0,0,0,0
2572,2799421,0,0,0,17,-14,2045,0,0,0,0
2576,2801421,0,0,0,17,-15,2045,0,0,0,0
2580,2803402,0,0,0,17,-15,2045,0,0,0,0
2584,2805402,0,0,0,17,-15,2045,0,0,0,0
2588,2807402,0,0,0,17,-15,2045,0,0,0,0
2592,2809427,0,0,0,17,-16,2045,0,0,0,0
2596,2811427,0,0,0,17,-16,2045,0,0,0,0
2600,2813427,0,0,0,17,-16,2045,0,0,0,0
2604,2815398,0,0,0,17,-16,2045,0,0,0,0
2608,2817398,0,0,0,16,-15,2045,0,0,0,0
2612,2819398,0,0,0,16,-15,2044,0,0,0,0
2616,2821378,0,0,0,17,-15,2044,0,0,0,0
2620,2823378,0,0,0,17,-15,2044,0,0,0,0
2624,2825378,0,0,0,17,-15,2044,0,0,0,0
2628,2827404,0,0,0,17,-15,2043,0,0,0,0
2632,2829404,0,0,0,16,-16,2043,0,0,0,0
2636,2831404,0,0,0,16,-16,2043,0,0,0,0
2640,2833374,0,0,0,16,-16,2043,0,0,0,0
2644,2835374,0,0,0,16,-16,2043,0,0,0,0
2648,2837374,0,0,0,16,-16,2044,0,0,0,0
2652,2839355,0,0,0,16,-16,2044,0,0,0,0
2656,2841355,0,0,0,16,-16,2044,0,0,0,0
2660,2843355,0,0,0,17,-16,2044,0,0,0,0
2664,2845355,0,0,0,17,-16,2044,0,0,0,0
2668,2847380,0,0,0,17,-16,2043,0,0,0,0
2672,2849380,0,0,0,17,-16,2044,0,0,0,0
2676,2851380,0,0,0,17,-15,2044,0,0,0,0
2680,2853351,0,0,0,16,-15,2044,0,0,0,0
2684,2855351,0,0,0,16,-16,2044,0,0,0,0
2688,2857351,0,0,0,16,-16,2044,0,0,0,0
2692,2859331,0,0,0,16,-16,2044,0,0,0,0
2696,2861331,0,0,0,16,-15,2045,0,0,0,0
2700,2863331,0,0,0,16,-15,2045,0,0,0,0
2704,2865357,0,0,0,16,-15,2045,0,0,0,0
2708,2867357,0,0,0,17,-15,2045,0,0,0,0
2712,2869357,0,0,0,17,-15,2045,0,0,0,0
2716,2871328,0,0,0,17,-15,2045,0,0,0,0
2720,2873328,0,0,0,17,-15,2045,0,0,0,0
2724,2875328,0,0,0,17,-15,2045,0,0,0,0
2728,2877308,0,0,0,16,-15,2045,0,0,0,0
2732,2879308,0,0,0,16,-14,2045,0,0,0,0
2736,2881308,0,0,0,16,-14,2045,0,0,0,0
2740,2883333,0,0,0,15,-14,2045,0,0,0,0
2744,2885333,0,0,0,15,-15,2045,0,0,0,0
2748,2887333,0,0,0,15,-15,2045,0,0,0,0
2752,2889304,0,0,0,15,-15,2045,0,0,0,0
2756,2891304,0,0,0,15,-15,2044,0,0,0,0
2760,2893304,0,0,0,15,-16,2044,0,0,0,0
2764,2895284,0,0,0,15,-15,2044,0,0,0,0
2768,2897284,0,0,0,16,-15,2044,0,0,0,0
2772,2899284,0,0,0,16,-15,2043,0,0,0,0
2776,2901284,0,0,0,16,-15,2043,0,0,0,0
2780,2903310,0,0,0,16,-15,2043,0,0,0,0
2784,2905310,0,0,0,15,-15,2043,0,0,0,0
2788,2907310,0,0,0,15,-15,2042,0,0,0,0
2792,2909281,0,0,0,15,-15,2042,0,0,0,0
2796,2911281,0,0,0,15,-15,2042,0,0,0,0
2800,2913281,0,0,0,16,-14,2043,0,0,0,0
2804,2915261,0,0,0,16,-14,2043,0,0,0,0
2808,2917261,0,0,0,16,-14,2043,0,0,0,0
2812,2919261,0,0,0,16,-14,2043,0,0,0,0
2816,2921286,0,0,0,16,-14,2044,0,0,0,0
2820,2923286,0,0,0,16,-14,2044,0,0,0,0
2824,2925286,0,0,0,16,-14,2044,0,0,0,0
2828,2927257,0,0,0,16,-14,2044,0,0,0,0
2832,2929257,0,0,0,16,-14,2044,0,0,0,0
2836,2931257,0,0,0,16,-14,2044,0,0,0,0
2840,2933237,0,0,0,16,-14,2044,0,0,0,0
2844,2935238,0,0,0,16,-14,2044,0,0,0,0
2848,2937237,0,0,0,16,-14,2044,0,0,0,0
2852,2939263,0,0,0,16,-14,2044,0,0,0,0
2856,2941263,0,0,0,16,-15,2044,0,0,0,0
2860,2943263,0,0,0,16,-15,2044,0,0,0,0
2864,2945234,0,0,0,16,-15,2044,0,0,0,0
2868,2947234,0,0,0,16,-15,2044,0,0,0,0
2872,2949234,0,0,0,17,-15,2045,0,0,0,0
2876,2951214,0,0,0,17,-16,2044,0,0,0,0
2880,2953214,0,0,0,17,-16,2044,0,0,0,0
2884,2955214,0,0,0,17,-16,2044,0,0,0,0
2888,2957239,0,0,0,17,-16,2044,0,0,0,0
2892,2959239,0,0,0,17,-16,2044,0,0,0,0
2896,2961239,0,0,0,16,-16,2044,0,0,0,0
2900,2963239,0,0,0,16,-16,2044,0,0,0,0
2904,2965210,0,0,0,16,-16,2044,0,0,0,0
2908,2967210,0,0,0,17,-16,2044,0,0,0,0
2912,2969210,0,0,0,17,-16,2044,0,0,0,0
2916,2971191,0,0,0,17,-16,2044,0,0,0,0
2920,2973191,0,0,0,16,-16,2044,0,0,0,0
2924,2975191,0,0,0,17,-16,2044,0,0,0,0
2928,2977216,0,0,0,17,-16,2044,0,0,0,0
2932,2979216,0,0,0,17,-16,2044,0,0,0,0
2936,2981216,0,0,0,18,-16,2044,0,0,0,0
2940,2983187,0,0,0,17,-15,2044,0,0,0,0
2944,2985187,0,0,0,17,-16,2044,0,0,0,0
2948,2987187,0,0,0,17,-16,2044,0,0,0,0
2952,2989167,0,0,0,17,-16,2044,0,0,0,0
2956,2991167,0,0,0,17,-16,2044,0,0,0,0
2960,2993167,0,0,0,17,-16,2043,0,0,0,0
2964,2995192,0,0,0,17,-15,2043,0,0,0,0
2968,2997192,0,0,0,17,-14,2043,0,0,0,0
2972,2999192,0,0,0,17,-14,2043,0,0,0,0
2976,3001163,0,0,0,17,-14,2043,0,0,0,0
2980,3003163,0,0,0,16,-14,2043,0,0,0,0
2984,3005163,0,0,0,16,-14,2042,0,0,0,0
2988,3007144,0,0,0,16,-14,2043,0,0,0,0
2992,3009144,0,0,0,16,-14,2043,0,0,0,0
2996,3011144,0,0,0,16,-14,2043,0,0,0,0
3000,3013169,0,0,0,16,-14,2043,0,0,0,0
3004,3015169,0,0,0,15,-14,2043,0,0,0,0
3008,3017169,0,0,0,15,-13,2043,0,0,0,0
3012,3019140,0,0,0,15,-13,2043,0,0,0,0
3016,3021140,0,0,0,15,-14,2043,0,0,0,0
3020,3023140,0,0,0,16,-14,2042,0,0,0,0
3024,3025140,0,0,0,16,-14,2042,0,0,0,0
3028,3027119,0,0,0,16,-14,2042,0,0,0,0
3032,3029119,0,0,0,16,-14,2042,0,0,0,0
3036,3031119,0,0,0,16,-13,2043,0,0,0,0
3040,3033142,0,0,0,15,-13,2043,0,0,0,0
3044,3035142,0,0,0,16,-14,2043,0,0,0,0
3048,3037142,0,0,0,16,-14,2043,0,0,0,0
3052,3039116,0,0,0,16,-14,2044,0,0,0,0
3056,3041116,0,0,0,16,-15,2044,0,0,0,0
3060,3043116,0,0,0,16,-15,2044,0,0,0,0
3064,3045097,0,0,0,16,-15,2044,0,0,0,0
3068,3047097,0,0,0,16,-15,2044,0,0,0,0
3072,3049097,0,0,0,16,-15,2044,0,0,0,0
3076,3051122,0,0,0,16,-14,2044,0,0,0,0
3080,3053122,0,0,0,16,-14,2044,0,0,0,0
3084,3055122,0,0,0,16,-14,2044,0,0,0,0
3088,3057093,0,0,0,16,-14,2044,0,0,0,0
3092,3059093,0,0,0,17,-15,2044,0,0,0,0
3096,3061093,0,0,0,16,-15,2044,0,0,0,0
3100,3063073,0,0,0,16,-15,2044,0,0,0,0
3104,3065073,0,0,0,16,-15,2044,0,0,0,0
3108,3067073,0,0,0,15,-15,2044,0,0,0,0
3112,3069098,0,0,0,15,-15,2044,0,0,0,0
3116,3071098,0,0,0,16,-15,2043,0,0,0,0
3120,3073098,0,0,0,16,-15,2044,0,0,0,0
3124,3075069,0,0,0,16,-15,2044,0,0,0,0
3128,3077069,0,0,0,16,-16,2044,0,0,0,0
3132,3079069,0,0,0,16,-16,2044,0,0,0,0
3136,3081069,0,0,0,16,-16,2044,0,0,0,0
3140,3083050,0,0,0,15,-15,2044,0,0,0,0
3144,3085050,0,0,0,15,-15,2044,0,0,0,0
3148,3087050,0,0,0,15,-15,2044,0,0,0,0
3152,3089075,0,0,0,15,-15,2044,0,0,0,0
3156,3091075,0,0,0,15,-15,2045,0,0,0,0
3160,3093075,0,0,0,15,-15,2044,0,0,0,0
3164,3095046,0,0,0,16,-15,2044,0,0,0,0
3168,3097046,0,0,0,16,-15,2044,0,0,0,0
3172,3099046,0,0,0,16,-15,2044,0,0,0,0
3176,3101026,0,0,0,16,-15,2043,0,0,0,0
3180,3103026,0,0,0,16,-15,2043,0,0,0,0
3184,3105026,0,0,0,16,-15,2043,0,0,0,0
3188,3107051,0,0,0,16,-15,2043,0,0,0,0
3192,3109051,0,0,0,17,-15,2043,0,0,0,0
3196,3111051,0,0,0,17,-16,2043,0,0,0,0
3200,3113022,0,0,0,16,-16,2042,0,0,0,0
3204,3115022,0,0,0,16,-16,2041,0,0,0,0
3208,3117022,0,0,0,16,-16,2041,0,0,0,0
3212,3119003,0,0,0,15,-16,2042,0,0,0,0
3216,3121003,0,0,0,15,-16,2044,0,0,0,0
3220,3123003,0,0,0,15,-16,2045,0,0,0,0
3224,3125028,0,0,0,15,-15,2046,0,0,0,0
3228,3127028,0,0,0,15,-15,2047,0,0,0,0
3232,3129028,0,0,0,15,-15,2046,0,0,0,0
3236,3130999,0,0,0,16,-15,2046,0,0,0,0
3240,3132999,0,0,0,17,-15,2045,0,0,0,0
3244,3134999,0,0,0,17,-14,2044,0,0,0,0
3248,3136979,0,0,0,17,-14,2044,0,0,0,0
3252,3138979,0,0,0,18,-14,2043,0,0,0,0
3256,3140979,0,0,0,18,-14,2043,0,0,0,0
3260,3142979,0,0,0,18,-13,2044,0,0,0,0
3264,3145004,0,0,0,17,-13,2044,0,0,0,0
3268,3147004,0,0,0,17,-13,2043,0,0,0,0
3272,3149004,0,0,0,16,-14,2042,0,0,0,0
3276,3150975,0,0,0,16,-15,2041,0,0,0,0
3280,3152975,0,0,0,16,-17,2041,0,0,0,0
3284,3154975,0,0,0,15,-17,2042,0,0,0,0
3288,3156956,0,0,0,15,-17,2044,0,0,0,0
3292,3158956,0,0,0,15,-17,2045,0,0,0,0
3296,3160956,0,0,0,16,-16,2045,0,0,0,0
3300,3162981,0,0,0,16,-16,2045,0,0,0,0
3304,3164981,0,0,0,16,-16,2045,0,0,0,0
3308,3166981,0,0,0,16,-16,2044,0,0,0,0
3312,3168952,0,0,0,16,-16,2043,0,0,0,0
3316,3170952,0,0,0,17,-17,2043,0,0,0,0
3320,3172952,0,0,0,17,-17,2042,0,0,0,0
3324,3174932,0,0,0,17,-17,2043,0,0,0,0
3328,3176932,0,0,0,16,-16,2043,0,0,0,0
3332,3178932,0,0,0,16,-16,2043,0,0,0,0
3336,3180957,0,0,0,16,-16,2042,0,0,0,0
3340,3182957,0,0,0,15,-16,2042,0,0,0,0
3344,3184957,0,0,0,15,-17,2042,0,0,0,0
3348,3186928,0,0,0,15,-17,2042,0,0,0,0
3352,3188928,0,0,0,15,-17,2042,0,0,0,0
3356,3190928,0,0,0,15,-17,2041,0,0,0,0
3360,3192909,0,0,0,15,-16,2042,0,0,0,0
3364,3194909,0,0,0,15,-15,2044,0,0,0,0
3368,3196909,0,0,0,15,-14,2045,0,0,0,0
3372,3198909,0,0,0,16,-14,2046,0,0,0,0
3376,3200934,0,0,0,16,-13,2046,0,0,0,0
3380,3202934,0,0,0,16,-13,2046,0,0,0,0
3384,3204934,0,0,0,17,-13,2046,0,0,0,0
3388,3206905,0,0,0,17,-12,2046,0,0,0,0
3392,3208905,0,0,0,18,-12,2046,0,0,0,0
3396,3210905,0,0,0,18,-12,2046,0,0,0,0
3400,3212886,0,0,0,18,-11,2046,0,0,0,0
3404,3214885,0,0,0,19,-11,2046,0,0,0,0
3408,3216886,0,0,0,20,-10,2046,0,0,0,0
3412,3218910,0,0,0,20,-10,2046,0,0,0,0
3416,3220911,0,0,0,20,-10,2045,0,0,0,0
3420,3222910,0,0,0,20,-11,2045,0,0,0,0
3424,3224881,0,0,0,19,-12,2044,0,0,0,0
3428,3226882,0,0,0,19,-12,2044,0,0,0,0
3432,3228882,0,0,0,18,-13,2043,0,0,0,0
3436,3230862,0,0,0,17,-14,2043,0,0,0,0
3440,3232862,0,0,0,16,-14,2043,0,0,0,0
3444,3234862,0,0,0,15,-15,2043,0,0,0,0
3448,3236887,0,0,0,14,-16,2043,0,0,0,0
3452,3238887,0,0,0,13,-16,2043,0,0,0,0
3456,3240887,0,0,0,13,-17,2042,0,0,0,0
3460,3242858,0,0,0,13,-17,2041,0,0,0,0
3464,3244858,0,0,0,12,-18,2041,0,0,0,0
3468,3246858,0,0,0,12,-19,2040,0,0,0,0
3472,3248839,0,0,0,13,-19,2039,0,0,0,0
3476,3250839,0,0,0,13,-19,2040,0,0,0,0
3480,3252839,0,0,0,14,-19,2040,0,0,0,0
3484,3254864,0,0,0,14,-19,2041,0,0,0,0
3488,3256864,0,0,0,15,-18,2041,0,0,0,0
3492,3258864,0,0,0,16,-18,2042,0,0,0,0
3496,3260863,0,0,0,16,-17,2042,0,0,0,0
3500,3262835,0,0,0,16,-16,2043,0,0,0,0
3504,3264835,0,0,0,17,-14,2043,0,0,0,0
3508,3266835,0,0,0,17,-13,2044,0,0,0,0
3512,3268815,0,0,0,17,-12,2044,0,0,0,0
3516,3270815,0,0,0,17,-12,2045,0,0,0,0
3520,3272815,0,0,0,17,-12,2045,0,0,0,0
3524,3274840,0,0,0,18,-11,2046,0,0,0,0
3528,3276840,0,0,0,18,-11,2047,0,0,0,0
3532,3278840,0,0,0,18,-11,2047,0,0,0,0
3536,3280811,0,0,0,17,-11,2047,0,0,0,0
3540,3282811,0,0,0,17,-11,2047,0,0,0,0
3544,3284811,0,0,0,17,-11,2046,0,0,0,0
3548,3286792,0,0,0,17,-12,2046,0,0,0,0
3552,3288792,0,0,0,17,-12,2046,0,0,0,0
3556,3290792,0,0,0,16,-12,2046,0,0,0,0
3560,3292817,0,0,0,16,-13,2045,0,0,0,0
3564,3294817,0,0,0,17,-13,2045,0,0,0,0
3568,3296817,0,0,0,17,-14,2044,0,0,0,0
3572,3298788,0,0,0,16,-14,2044,0,0,0,0
3576,3300788,0,0,0,16,-15,2043,0,0,0,0
3580,3302788,0,0,0,15,-15,2043,0,0,0,0
3584,3304768,0,0,0,14,-15,2042,0,0,0,0
3588,3306768,0,0,0,14,-16,2042,0,0,0,0
3592,3308768,0,0,0,14,-16,2042,0,0,0,0
3596,3310794,0,0,0,13,-17,2043,0,0,0,0
3600,3312794,0,0,0,13,-17,2043,0,0,0,0
3604,3314794,0,0,0,13,-17,2043,0,0,0,0
3608,3316764,0,0,0,13,-17,2044,0,0,0,0
3612,3318764,0,0,0,14,-17,2044,0,0,0,0
3616,3320764,0,0,0,14,-17,2044,0,0,0,0
3620,3322764,0,0,0,15,-17,2043,0,0,0,0
3624,3324744,0,0,0,15,-17,2043,0,0,0,0
3628,3326744,0,0,0,16,-17,2044,0,0,0,0
3632,3328744,0,0,0,16,-16,2044,0,0,0,0
3636,3330766,0,0,0,16,-15,2044,0,0,0,0
3640,3332766,0,0,0,17,-15,2044,0,0,0,0
3644,3334766,0,0,0,17,-14,2044,0,0,0,0
3648,3336741,0,0,0,18,-13,2045,0,0,0,0
3652,3338741,0,0,0,18,-13,2045,0,0,0,0
3656,3340741,0,0,0,18,-13,2046,0,0,0,0
3660,3342721,0,0,0,18,-12,2046,0,0,0,0
3664,3344721,0,0,0,18,-12,2045,0,0,0,0
3668,3346721,0,0,0,17,-12,2045,0,0,0,0
3672,3348747,0,0,0,17,-12,2046,0,0,0,0
3676,3350747,0,0,0,17,-12,2046,0,0,0,0
3680,3352747,0,0,0,17,-13,2047,0,0,0,0
3684,3354717,0,0,0,17,-13,2047,0,0,0,0
3688,3356717,0,0,0,16,-14,2047,0,0,0,0
3692,3358717,0,0,0,17,-13,2047,0,0,0,0
3696,3360698,0,0,0,17,-13,2046,0,0,0,0
3700,3362698,0,0,0,17,-14,2045,0,0,0,0
3704,3364698,0,0,0,17,-14,2043,0,0,0,0
3708,3366723,0,0,0,16,-15,2042,0,0,0,0
3712,3368723,0,0,0,16,-16,2041,0,0,0,0
3716,3370723,0,0,0,15,-17,2041,0,0,0,0
3720,3372694,0,0,0,15,-17,2041,0,0,0,0
3724,3374694,0,0,0,15,-17,2043,0,0,0,0
3728,3376694,0,0,0,14,-17,2044,0,0,0,0
3732,3378694,0,0,0,14,-16,2045,0,0,0,0
3736,3380674,0,0,0,14,-16,2045,0,0,0,0
3740,3382674,0,0,0,15,-15,2044,0,0,0,0
3744,3384674,0,0,0,15,-15,2044,0,0,0,0
3748,3386700,0,0,0,16,-16,2044,0,0,0,0
3752,3388700,0,0,0,16,-16,2044,0,0,0,0
3756,3390700,0,0,0,17,-15,2045,0,0,0,0
3760,3392670,0,0,0,18,-15,2045,0,0,0,0
3764,3394670,0,0,0,19,-14,2046,0,0,0,0
3768,3396670,0,0,0,19,-14,2046,0,0,0,0
3772,3398651,0,0,0,19,-14,2046,0,0,0,0
3776,3400651,0,0,0,19,-14,2045,0,0,0,0
3780,3402651,0,0,0,19,-15,2043,0,0,0,0
3784,3404676,0,0,0,19,-17,2043,0,0,0,0
3788,3406676,0,0,0,18,-18,2043,0,0,0,0
3792,3408676,0,0,0,18,-19,2044,0,0,0,0
3796,3410647,0,0,0,17,-19,2044,0,0,0,0
3800,3412647,0,0,0,17,-19,2045,0,0,0,0
3804,3414647,0,0,0,16,-19,2045,0,0,0,0
3808,3416627,0,0,0,15,-19,2044,0,0,0,0
3812,3418627,0,0,0,14,-19,2044,0,0,0,0
3816,3420627,0,0,0,14,-19,2043,0,0,0,0
3820,3422653,0,0,0,14,-19,2043,0,0,0,0
3824,3424653,0,0,0,14,-19,2043,0,0,0,0
3828,3426653,0,0,0,14,-19,2043,0,0,0,0
3832,3428623,0,0,0,14,-18,2044,0,0,0,0
3836,3430624,0,0,0,14,-17,2044,0,0,0,0
3840,3432623,0,0,0,14,-16,2045,0,0,0,0
3844,3434604,0,0,0,14,-15,2045,0,0,0,0
3848,3436604,0,0,0,14,-15,2045,0,0,0,0
3852,3438604,0,0,0,15,-14,2044,0,0,0,0
3856,3440604,0,0,0,15,-14,2043,0,0,0,0
3860,3442629,0,0,0,16,-13,2043,0,0,0,0
3864,3444629,0,0,0,16,-12,2044,0,0,0,0
3868,3446629,0,0,0,16,-10,2045,0,0,0,0
3872,3448600,0,0,0,16,-9,2045,0,0,0,0
3876,3450600,0,0,0,17,-9,2046,0,0,0,0
3880,3452600,0,0,0,17,-9,2047,0,0,0,0
3884,3454580,0,0,0,17,-9,2047,0,0,0,0
3888,3456580,0,0,0,17,-10,2047,0,0,0,0
3892,3458580,0,0,0,16,-10,2046,0,0,0,0
3896,3460606,0,0,0,16,-11,2046,0,0,0,0
3900,3462606,0,0,0,16,-11,2046,0,0,0,0
3904,3464606,0,0,0,15,-11,2046,0,0,0,0
3908,3466577,0,0,0,15,-12,2046,0,0,0,0
3912,3468577,0,0,0,15,-13,2045,0,0,0,0
3916,3470577,0,0,0,15,-14,2045,0,0,0,0
3920,3472557,0,0,0,14,-15,2044,0,0,0,0
3924,3474557,0,0,0,15,-16,2043,0,0,0,0
3928,3476557,0,0,0,15,-17,2043,0,0,0,0
3932,3478582,0,0,0,15,-17,2043,0,0,0,0
3936,3480582,0,0,0,15,-17,2042,0,0,0,0
3940,3482582,0,0,0,15,-17,2042,0,0,0,0
3944,3484553,0,0,0,14,-17,2042,0,0,0,0
3948,3486553,0,0,0,15,-17,2043,0,0,0,0
3952,3488553,0,0,0,15,-16,2044,0,0,0,0
3956,3490533,0,0,0,16,-16,2045,0,0,0,0
3960,3492533,0,0,0,16,-16,2045,0,0,0,0
3964,3494533,0,0,0,17,-15,2045,0,0,0,0
3968,3496533,0,0,0,17,-15,2045,0,0,0,0
3972,3498559,0,0,0,17,-14,2045,0,0,0,0
3976,3500559,0,0,0,18,-14,2045,0,0,0,0
3980,3502559,0,0,0,18,-14,2044,0,0,0,0
3984,3504530,0,0,0,18,-13,2044,0,0,0,0
3988,3506530,0,0,0,18,-13,2044,0,0,0,0
3992,3508530,0,0,0,18,-13,2044,0,0,0,0
3996,3510510,0,0,0,18,-13,2044,0,0,0,0
4000,3512510,0,0,0,18,-13,2043,0,0,0,0
4004,3514510,0,0,0,18,-13,2044,0,0,0,0
4008,3516535,0,0,0,18,-13,2044,0,0,0,0
4012,3518535,0,0,0,18,-13,2044,0,0,0,0
4016,3520535,0,0,0,18,-13,2045,0,0,0,0
4020,3522506,0,0,0,17,-14,2045,0,0,0,0
4024,3524506,0,0,0,16,-14,2045,0,0,0,0
4028,3526506,0,0,0,16,-15,2045,0,0,0,0
4032,3528487,0,0,0,15,-15,2045,0,0,0,0
4036,3530487,0,0,0,15,-16,2044,0,0,0,0
4040,3532487,0,0,0,15,-16,2043,0,0,0,0
4044,3534512,0,0,0,15,-17,2043,0,0,0,0
4048,3536512,0,0,0,14,-17,2043,0,0,0,0
4052,3538512,0,0,0,14,-18,2043,0,0,0,0
4056,3540483,0,0,0,14,-18,2042,0,0,0,0
4060,3542483,0,0,0,14,-17,2042,0,0,0,0
4064,3544483,0,0,0,15,-16,2042,0,0,0,0
4068,3546463,0,0,0,16,-16,2042,0,0,0,0
4072,3548464,0,0,0,16,-15,2042,0,0,0,0
4076,3550463,0,0,0,17,-15,2042,0,0,0,0
4080,3552488,0,0,0,17,-14,2043,0,0,0,0
4084,3554488,0,0,0,17,-13,2044,0,0,0,0
4088,3556488,0,0,0,18,-12,2045,0,0,0,0
4092,3558488,0,0,0,18,-12,2046,0,0,0,0
4096,3560459,0,0,0,19,-11,2046,0,0,0,0
4100,3562459,0,0,0,19,-11,2046,0,0,0,0
4104,3564459,0,0,0,19,-12,2046,0,0,0,0
4108,3566440,0,0,0,19,-12,2046,0,0,0,0
4112,3568440,0,0,0,19,-12,2047,0,0,0,0
4116,3570440,0,0,0,18,-12,2047,0,0,0,0
4120,3572465,0,0,0,18,-13,2046,0,0,0,0
4124,3574465,0,0,0,18,-13,2046,0,0,0,0
4128,3576465,0,0,0,17,-14,2046,0,0,0,0
4132,3578436,0,0,0,17,-14,2045,0,0,0,0
4136,3580436,0,0,0,16,-15,2045,0,0,0,0
4140,3582436,0,0,0,16,-16,2044,0,0,0,0
4144,3584416,0,0,0,15,-17,2043,0,0,0,0
4148,3586416,0,0,0,14,-17,2043,0,0,0,0
4152,3588416,0,0,0,13,-18,2043,0,0,0,0
4156,3590441,0,0,0,13,-18,2043,0,0,0,0
4160,3592441,0,0,0,13,-18,2043,0,0,0,0
4164,3594441,0,0,0,13,-18,2043,0,0,0,0
4168,3596412,0,0,0,13,-17,2043,0,0,0,0
4172,3598412,0,0,0,14,-17,2043,0,0,0,0
4176,3600412,0,0,0,14,-17,2043,0,0,0,0
4180,3602393,0,0,0,15,-17,2043,0,0,0,0
4184,3604393,0,0,0,15,-17,2043,0,0,0,0
4188,3606393,0,0,0,15,-16,2043,0,0,0,0
4192,3608418,0,0,0,15,-15,2043,0,0,0,0
4196,3610418,0,0,0,16,-14,2044,0,0,0,0
4200,3612418,0,0,0,17,-14,2044,0,0,0,0
4204,3614389,0,0,0,18,-13,2044,0,0,0,0
4208,3616389,0,0,0,19,-13,2045,0,0,0,0
4212,3618389,0,0,0,19,-13,2045,0,0,0,0
4216,3620389,0,0,0,19,-13,2046,0,0,0,0
4220,3622368,0,0,0,19,-13,2046,0,0,0,0
4224,3624368,0,0,0,19,-13,2045,0,0,0,0
4228,3626368,0,0,0,19,-13,2045,0,0,0,0
4232,3628391,0,0,0,18,-13,2045,0,0,0,0
4236,3630391,0,0,0,18,-13,2045,0,0,0,0
4240,3632391,0,0,0,18,-14,2046,0,0,0,0
4244,3634365,0,0,0,17,-15,2046,0,0,0,0
4248,3636365,0,0,0,17,-15,2046,0,0,0,0
4252,3638365,0,0,0,16,-15,2046,0,0,0,0
4256,3640346,0,0,0,16,-14,2046,0,0,0,0
4260,3642346,0,0,0,15,-14,2045,0,0,0,0
4264,3644346,0,0,0,15,-15,2044,0,0,0,0
4268,3646371,0,0,0,15,-15,2043,0,0,0,0
4272,3648371,0,0,0,15,-16,2043,0,0,0,0
4276,3650371,0,0,0,15,-16,2043,0,0,0,0
4280,3652342,0,0,0,15,-17,2043,0,0,0,0
4284,3654342,0,0,0,15,-16,2043,0,0,0,0
4288,3656342,0,0,0,15,-16,2043,0,0,0,0
4292,3658322,0,0,0,15,-16,2044,0,0,0,0
4296,3660322,0,0,0,15,-16,2044,0,0,0,0
4300,3662322,0,0,0,15,-15,2043,0,0,0,0
4304,3664347,0,0,0,15,-15,2043,0,0,0,0
4308,3666347,0,0,0,14,-15,2043,0,0,0,0
4312,3668347,0,0,0,15,-15,2043,0,0,0,0
4316,3670318,0,0,0,15,-14,2044,0,0,0,0
4320,3672318,0,0,0,16,-14,2044,0,0,0,0
4324,3674318,0,0,0,16,-14,2044,0,0,0,0
4328,3676318,0,0,0,16,-14,2044,0,0,0,0
4332,3678299,0,0,0,17,-14,2044,0,0,0,0
4336,3680299,0,0,0,17,-14,2045,0,0,0,0
4340,3682299,0,0,0,18,-14,2045,0,0,0,0
4344,3684324,0,0,0,18,-13,2045,0,0,0,0
4348,3686324,0,0,0,18,-13,2045,0,0,0,0
4352,3688324,0,0,0,18,-12,2045,0,0,0,0
4356,3690295,0,0,0,18,-12,2045,0,0,0,0
4360,3692295,0,0,0,18,-12,2045,0,0,0,0
4364,3694295,0,0,0,17,-12,2045,0,0,0,0
4368,3696275,0,0,0,17,-12,2045,0,0,0,0
4372,3698275,0,0,0,17,-13,2045,0,0,0,0
4376,3700275,0,0,0,17,-13,2045,0,0,0,0
4380,3702300,0,0,0,17,-14,2045,0,0,0,0
4384,3704300,0,0,0,17,-14,2045,0,0,0,0
4388,3706300,0,0,0,17,-15,2044,0,0,0,0
4392,3708271,0,0,0,17,-16,2044,0,0,0,0
4396,3710271,0,0,0,17,-16,2044,0,0,0,0
4400,3712271,0,0,0,17,-17,2044,0,0,0,0
4404,3714252,0,0,0,17,-17,2044,0,0,0,0
4408,3716252,0,0,0,16,-18,2043,0,0,0,0
4412,3718252,0,0,0,15,-18,2043,0,0,0,0
4416,3720277,0,0,0,15,-18,2043,0,0,0,0
4420,3722277,0,0,0,15,-18,2043,0,0,0,0
4424,3724277,0,0,0,15,-18,2043,0,0,0,0
4428,3726248,0,0,0,15,-19,2043,0,0,0,0
4432,3728248,0,0,0,16,-19,2043,0,0,0,0
4436,3730248,0,0,0,16,-18,2044,0,0,0,0
4440,3732228,0,0,0,17,-18,2044,0,0,0,0
4444,3734228,0,0,0,17,-17,2044,0,0,0,0
4448,3736228,0,0,0,17,-16,2044,0,0,0,0
4452,3738228,0,0,0,17,-16,2044,0,0,0,0
4456,3740253,0,0,0,17,-16,2044,0,0,0,0
4460,3742253,0,0,0,17,-15,2043,0,0,0,0
4464,3744253,0,0,0,17,-15,2044,0,0,0,0
4468,3746224,0,0,0,17,-15,2044,0,0,0,0
4472,3748224,0,0,0,17,-14,2045,0,0,0,0
4476,3750224,0,0,0,17,-13,2045,0,0,0,0
4480,3752205,0,0,0,17,-12,2045,0,0,0,0
4484,3754205,0,0,0,18,-12,2045,0,0,0,0
4488,3756205,0,0,0,18,-11,2045,0,0,0,0
4492,3758230,0,0,0,17,-11,2045,0,0,0,0
4496,3760230,0,0,0,17,-12,2045,0,0,0,0
4500,3762230,0,0,0,17,-12,2044,0,0,0,0
4504,3764201,0,0,0,17,-12,2044,0,0,0,0
4508,3766201,0,0,0,17,-13,2044,0,0,0,0
4512,3768201,0,0,0,16,-13,2044,0,0,0,0
4516,3770181,0,0,0,16,-13,2044,0,0,0,0
4520,3772181,0,0,0,15,-13,2044,0,0,0,0
4524,3774181,0,0,0,15,-13,2044,0,0,0,0
4528,3776206,0,0,0,15,-13,2044,0,0,0,0
4532,3778206,0,0,0,15,-13,2044,0,0,0,0
4536,3780206,0,0,0,14,-13,2044,0,0,0,0
4540,3782178,0,0,0,14,-13,2044,0,0,0,0
4544,3784177,0,0,0,14,-13,2043,0,0,0,0
4548,3786178,0,0,0,14,-13,2043,0,0,0,0
4552,3788158,0,0,0,14,-13,2043,0,0,0,0
4556,3790158,0,0,0,15,-13,2043,0,0,0,0
4560,3792158,0,0,0,15,-13,2044,0,0,0,0
4564,3794158,0,0,0,15,-14,2044,0,0,0,0
4568,3796183,0,0,0,15,-14,2044,0,0,0,0
4572,3798183,0,0,0,15,-14,2044,0,0,0,0
4576,3800183,0,0,0,16,-15,2043,0,0,0,0
4580,3802154,0,0,0,17,-15,2043,0,0,0,0
4584,3804154,0,0,0,17,-15,2044,0,0,0,0
4588,3806154,0,0,0,17,-15,2044,0,0,0,0
4592,3808135,0,0,0,18,-15,2045,0,0,0,0
4596,3810135,0,0,0,18,-15,2045,0,0,0,0
4600,3812135,0,0,0,18,-15,2045,0,0,0,0
4604,3814159,0,0,0,18,-15,2045,0,0,0,0
4608,3816160,0,0,0,18,-15,2045,0,0,0,0
4612,3818159,0,0,0,17,-16,2044,0,0,0,0
4616,3820131,0,0,0,18,-15,2044,0,0,0,0
4620,3822131,0,0,0,18,-15,2044,0,0,0,0
4624,3824131,0,0,0,18,-14,2044,0,0,0,0
4628,3826111,0,0,0,18,-13,2044,0,0,0,0
4632,3828111,0,0,0,17,-13,2043,0,0,0,0
4636,3830111,0,0,0,17,-14,2043,0,0,0,0
4640,3832136,0,0,0,17,-14,2043,0,0,0,0
4644,3834136,0,0,0,17,-14,2043,0,0,0,0
4648,3836136,0,0,0,16,-14,2043,0,0,0,0
4652,3838107,0,0,0,16,-14,2043,0,0,0,0
4656,3840107,0,0,0,16,-14,2043,0,0,0,0
4660,3842107,0,0,0,16,-14,2043,0,0,0,0
4664,3844088,0,0,0,17,-14,2043,0,0,0,0
4668,3846088,0,0,0,17,-15,2043,0,0,0,0
4672,3848088,0,0,0,17,-15,2043,0,0,0,0
4676,3850113,0,0,0,17,-16,2043,0,0,0,0
4680,3852113,0,0,0,17,-16,2043,0,0,0,0
4684,3854113,0,0,0,17,-16,2044,0,0,0,0
4688,3856113,0,0,0,16,-16,2044,0,0,0,0
4692,3858084,0,0,0,16,-16,2045,0,0,0,0
4696,3860084,0,0,0,16,-16,2045,0,0,0,0
4700,3862084,0,0,0,17,-16,2045,0,0,0,0
4704,3864064,0,0,0,17,-16,2045,0,0,0,0
4708,3866064,0,0,0,18,-16,2045,0,0,0,0
4712,3868064,0,0,0,18,-16,2045,0,0,0,0
4716,3870090,0,0,0,18,-16,2045,0,0,0,0
4720,3872089,0,0,0,18,-15,2045,0,0,0,0
4724,3874090,0,0,0,17,-15,2045,0,0,0,0
4728,3876060,0,0,0,17,-14,2045,0,0,0,0
4732,3878060,0,0,0,17,-14,2045,0,0,0,0
4736,3880060,0,0,0,17,-14,2045,0,0,0,0
4740,3882041,0,0,0,17,-14,2045,0,0,0,0
4744,3884041,0,0,0,17,-14,2045,0,0,0,0
4748,3886041,0,0,0,17,-14,2045,0,0,0,0
4752,3888066,0,0,0,17,-13,2044,0,0,0,0
4756,3890066,0,0,0,17,-13,2044,0,0,0,0
4760,3892066,0,0,0,17,-12,2044,0,0,0,0
4764,3894037,0,0,0,16,-13,2044,0,0,0,0
4768,3896037,0,0,0,16,-13,2044,0,0,0,0
4772,3898037,0,0,0,16,-13,2044,0,0,0,0
4776,3900017,0,0,0,15,-13,2044,0,0,0,0
4780,3902017,0,0,0,15,-13,2045,0,0,0,0
4784,3904017,0,0,0,15,-13,2045,0,0,0,0
4788,3906043,0,0,0,15,-13,2045,0,0,0,0
4792,3908043,0,0,0,15,-13,2045,0,0,0,0
4796,3910043,0,0,0,15,-13,2045,0,0,0,0
4800,3912013,0,0,0,15,-13,2045,0,0,0,0
4804,3914013,0,0,0,15,-13,2044,0,0,0,0
4808,3916013,0,0,0,14,-13,2044,0,0,0,0
4812,3918013,0,0,0,14,-14,2044,0,0,0,0
4816,3919993,0,0,0,14,-14,2044,0,0,0,0
4820,3921993,0,0,0,14,-14,2044,0,0,0,0
4824,3923993,0,0,0,15,-13,2044,0,0,0,0
4828,3926015,0,0,0,16,-13,2045,0,0,0,0
4832,3928015,0,0,0,16,-13,2045,0,0,0,0
4836,3930015,0,0,0,16,-13,2045,0,0,0,0
4840,3931990,0,0,0,16,-13,2045,0,0,0,0
4844,3933990,0,0,0,16,-13,2045,0,0,0,0
4848,3935990,0,0,0,16,-13,2044,0,0,0,0
4852,3937970,0,0,0,16,-13,2044,0,0,0,0
4856,3939970,0,0,0,16,-14,2044,0,0,0,0
4860,3941970,0,0,0,16,-14,2045,0,0,0,0
4864,3943996,0,0,0,16,-15,2045,0,0,0,0
4868,3945996,0,0,0,17,-15,2045,0,0,0,0
4872,3947996,0,0,0,17,-15,2045,0,0,0,0
4876,3949966,0,0,0,17,-15,2045,0,0,0,0
4880,3951966,0,0,0,17,-15,2045,0,0,0,0
4884,3953966,0,0,0,17,-15,2045,0,0,0,0
4888,3955947,0,0,0,18,-15,2045,0,0,0,0
4892,3957947,0,0,0,18,-15,2045,0,0,0,0
4896,3959947,0,0,0,18,-15,2045,0,0,0,0
4900,3961972,0,0,0,19,-15,2044,0,0,0,0
4904,3963972,0,0,0,18,-16,2044,0,0,0,0
4908,3965972,0,0,0,18,-16,2043,0,0,0,0
4912,3967943,0,0,0,18,-16,2043,0,0,0,0
4916,3969943,0,0,0,17,-16,2044,0,0,0,0
4920,3971943,0,0,0,17,-16,2044,0,0,0,0
4924,3973943,0,0,0,17,-17,2044,0,0,0,0
4928,3975923,0,0,0,16,-17,2044,0,0,0,0
4932,3977923,0,0,0,16,-17,2044,0,0,0,0
4936,3979923,0,0,0,15,-17,2043,0,0,0,0
4940,3981949,0,0,0,16,-17,2043,0,0,0,0
4944,3983949,0,0,0,15,-17,2043,0,0,0,0
4948,3985949,0,0,0,15,-17,2043,0,0,0,0
4952,3987920,0,0,0,15,-17,2043,0,0,0,0
4956,3989920,0,0,0,15,-17,2043,0,0,0,0
4960,3991919,0,0,0,15,-17,2044,0,0,0,0
4964,3993900,0,0,0,15,-16,2044,0,0,0,0
4968,3995900,0,0,0,15,-16,2044,0,0,0,0
4972,3997900,0,0,0,15,-15,2044,0,0,0,0
4976,3999925,0,0,0,15,-15,2044,0,0,0,0
4980,4001925,0,0,0,15,-14,2044,0,0,0,0
4984,4003925,0,0,0,16,-14,2044,0,0,0,0
4988,4005896,0,0,0,16,-15,2044,0,0,0,0
4992,4007896,0,0,0,16,-15,2044,0,0,0,0
4996,4009896,0,0,0,16,-15,2044,0,0,0,0
5000,4011876,0,0,0,17,-15,2044,0,0,0,0
5004,4013876,0,0,0,17,-14,2045,0,0,0,0
5008,4015876,0,0,0,17,-14,2045,0,0,0,0
5012,4017902,0,0,0,17,-14,2045,0,0,0,0
5016,4019902,0,0,0,17,-14,2045,0,0,0,0
5020,4021902,0,0,0,18,-14,2045,0,0,0,0
5024,4023873,0,0,0,18,-14,2045,0,0,0,0
5028,4025873,0,0,0,18,-13,2045,0,0,0,0
5032,4027873,0,0,0,18,-13,2045,0,0,0,0
5036,4029853,0,0,0,18,-13,2046,0,0,0,0
5040,4031853,0,0,0,18,-12,2046,0,0,0,0
5044,4033853,0,0,0,18,-11,2046,0,0,0,0
5048,4035853,0,0,0,17,-11,2045,0,0,0,0
5052,4037878,0,0,0,17,-12,2045,0,0,0,0
5056,4039878,0,0,0,16,-13,2044,0,0,0,0
5060,4041878,0,0,0,16,-13,2044,0,0,0,0
5064,4043849,0,0,0,16,-14,2044,0,0,0,0
5068,4045849,0,0,0,15,-14,2044,0,0,0,0
5072,4047849,0,0,0,15,-14,2044,0,0,0,0
5076,4049829,0,0,0,14,-14,2045,0,0,0,0
5080,4051829,0,0,0,14,-13,2045,0,0,0,0
5084,4053829,0,0,0,15,-13,2045,0,0,0,0
5088,4055855,0,0,0,15,-13,2045,0,0,0,0
5092,4057855,0,0,0,15,-13,2045,0,0,0,0
5096,4059855,0,0,0,15,-14,2046,0,0,0,0
5100,4061826,0,0,0,15,-14,2046,0,0,0,0
5104,4063826,0,0,0,16,-13,2046,0,0,0,0
5108,4065826,0,0,0,16,-12,2046,0,0,0,0
5112,4067806,0,0,0,16,-12,2046,0,0,0,0
5116,4069806,0,0,0,16,-12,2046,0,0,0,0
5120,4071806,0,0,0,17,-12,2046,0,0,0,0
5124,4073831,0,0,0,17,-12,2046,0,0,0,0
5128,4075831,0,0,0,17,-12,2045,0,0,0,0
5132,4077831,0,0,0,17,-13,2045,0,0,0,0
5136,4079802,0,0,0,17,-13,2045,0,0,0,0
5140,4081802,0,0,0,17,-14,2045,0,0,0,0
5144,4083802,0,0,0,17,-14,2044,0,0,0,0
5148,4085783,0,0,0,16,-15,2041,0,0,0,0
5152,4087783,0,0,0,15,-16,2037,0,0,0,0
5156,4089783,0,0,0,15,-17,2036,0,0,0,0
5160,4091783,0,0,0,13,-19,2037,0,0,0,0
5164,4093808,0,0,0,13,-20,2039,0,0,0,0
5168,4095808,0,0,0,12,-20,2042,0,0,0,0
5172,4097808,0,0,0,11,-20,2045,0,0,0,0
5176,4099779,0,0,0,10,-18,2045,0,0,0,0
5180,4101779,0,0,0,11,-17,2046,0,0,0,0
5184,4103779,0,0,0,12,-16,2047,0,0,0,0
5188,4105759,0,0,0,14,-16,2048,0,0,0,0
5192,4107759,0,0,0,15,-15,2050,0,0,0,0
5196,4109759,0,0,0,17,-14,2049,0,0,0,0
5200,4111784,0,0,0,20,-11,2048,0,0,0,0
5204,4113784,0,0,0,23,-9,2049,0,0,0,0
5208,4115784,0,0,0,24,-7,2050,0,0,0,0
5212,4117755,0,0,0,24,-6,2050,0,0,0,0
5216,4119755,0,0,0,24,-6,2050,0,0,0,0
5220,4121755,0,0,0,24,-6,2047,0,0,0,0
5224,4123736,0,0,0,24,-7,2044,0,0,0,0
5228,4125736,0,0,0,22,-9,2043,0,0,0,0
5232,4127736,0,0,0,21,-10,2044,0,0,0,0
5236,4129761,0,0,0,18,-12,2043,0,0,0,0
5240,4131761,0,0,0,16,-14,2042,0,0,0,0
5244,4133761,0,0,0,14,-15,2042,0,0,0,0
5248,4135732,0,0,0,12,-16,2042,0,0,0,0
5252,4137732,0,0,0,11,-18,2041,0,0,0,0
5256,4139732,0,0,0,10,-20,2042,0,0,0,0
5260,4141712,0,0,0,10,-21,2042,0,0,0,0
5264,4143712,0,0,0,9,-22,2040,0,0,0,0
5268,4145712,0,0,0,9,-22,2039,0,0,0,0
5272,4147737,0,0,0,9,-21,2040,0,0,0,0
5276,4149737,0,0,0,9,-21,2040,0,0,0,0
5280,4151737,0,0,0,9,-20,2041,0,0,0,0
5284,4153737,0,0,0,10,-20,2043,0,0,0,0
5288,4155708,0,0,0,11,-19,2043,0,0,0,0
5292,4157708,0,0,0,13,-19,2043,0,0,0,0
5296,4159708,0,0,0,14,-19,2043,0,0,0,0
5300,4161689,0,0,0,15,-18,2043,0,0,0,0
5304,4163689,0,0,0,16,-18,2043,0,0,0,0
5308,4165689,0,0,0,17,-17,2043,0,0,0,0
5312,4167714,0,0,0,19,-15,2044,0,0,0,0
5316,4169714,0,0,0,19,-14,2046,0,0,0,0
5320,4171714,0,0,0,20,-13,2048,0,0,0,0
5324,4173685,0,0,0,21,-12,2049,0,0,0,0
5328,4175685,0,0,0,22,-11,2050,0,0,0,0
5332,4177685,0,0,0,22,-10,2049,0,0,0,0
5336,4179665,0,0,0,22,-10,2049,0,0,0,0
5340,4181665,0,0,0,22,-11,2048,0,0,0,0
5344,4183665,0,0,0,21,-11,2048,0,0,0,0
5348,4185690,0,0,0,20,-12,2048,0,0,0,0
5352,4187690,0,0,0,18,-12,2047,0,0,0,0
5356,4189690,0,0,0,17,-13,2044,0,0,0,0
5360,4191661,0,0,0,17,-13,2045,0,0,0,0
5364,4193661,0,0,0,17,-13,2033,0,0,0,0
5368,4195661,0,0,0,16,-13,2026,0,0,0,0
5372,4197642,0,0,0,15,-13,2025,0,0,0,0
5376,4199642,0,0,0,15,-13,2027,0,0,0,0
5380,4201642,0,0,0,14,-12,2027,0,0,0,0
5384,4203667,0,0,0,15,-13,2028,0,0,0,0
5388,4205667,0,0,0,14,-14,2031,0,0,0,0
5392,4207667,0,0,0,14,-15,2035,0,0,0,0
5396,4209638,0,0,0,12,-15,2036,0,0,0,0
5400,4211638,0,0,0,12,-15,2038,0,0,0,0
5404,4213638,0,0,0,13,-14,2041,0,0,0,0
5408,4215638,0,0,0,13,-15,2043,0,0,0,0
5412,4217617,0,0,0,13,-15,2043,0,0,0,0
5416,4219617,0,0,0,12,-16,2045,0,0,0,0
5420,4221617,0,0,0,14,-16,2045,0,0,0,0
5424,4223640,0,0,0,15,-16,2044,0,0,0,0
5428,4225640,0,0,0,18,-16,2047,0,0,0,0
5432,4227643,0,0,0,19,-14,2050,0,0,0,0
5436,4229614,0,0,0,19,-12,2050,0,0,0,0
5440,4231614,0,0,0,21,-10,2049,0,0,0,0
5444,4233614,0,0,0,23,-9,2050,0,0,0,0
5448,4235595,0,0,0,24,-8,2049,0,0,0,0
5452,4237595,0,0,0,24,-8,2047,0,0,0,0
5456,4239595,0,0,0,24,-9,2047,0,0,0,0
5460,4241620,0,0,0,23,-10,2046,0,0,0,0
5464,4243620,0,0,0,22,-11,2044,0,0,0,0
5468,4245622,0,0,0,20,-11,2044,0,0,0,0
5472,4247591,0,0,0,17,-12,2045,0,0,0,0
5476,4249591,0,0,0,15,-14,2046,0,0,0,0
5480,4251591,0,0,0,14,-16,2045,0,0,0,0
5484,4253571,0,0,0,13,-17,2044,0,0,0,0
5488,4255571,0,0,0,13,-19,2043,0,0,0,0
5492,4257571,0,0,0,12,-21,2043,0,0,0,0
5496,4259596,0,0,0,12,-21,2042,0,0,0,0
5500,4261596,0,0,0,12,-21,2041,0,0,0,0
5504,4263596,0,0,0,12,-21,2041,0,0,0,0
5508,4265567,0,0,0,12,-21,2040,0,0,0,0
5512,4267567,0,0,0,13,-20,2041,0,0,0,0
5516,4269567,0,0,0,14,-21,2042,0,0,0,0
5520,4271567,0,0,0,15,-21,2042,0,0,0,0
5524,4273548,0,0,0,16,-20,2042,0,0,0,0
5528,4275548,0,0,0,17,-19,2042,0,0,0,0
5532,4277548,0,0,0,17,-18,2042,0,0,0,0
5536,4279573,0,0,0,17,-16,2042,0,0,0,0
5540,4281573,0,0,0,17,-15,2043,0,0,0,0
5544,4283573,0,0,0,17,-13,2043,0,0,0,0
5548,4285544,0,0,0,18,-12,2044,0,0,0,0
5552,4287544,0,0,0,18,-12,2045,0,0,0,0
5556,4289544,0,0,0,19,-11,2046,0,0,0,0
5560,4291524,0,0,0,19,-11,2046,0,0,0,0
5564,4293525,0,0,0,20,-10,2046,0,0,0,0
5568,4295525,0,0,0,20,-10,2046,0,0,0,0
5572,4297549,0,0,0,19,-9,2046,0,0,0,0
5576,4299549,0,0,0,19,-9,2045,0,0,0,0
5580,4301549,0,0,0,19,-10,2045,0,0,0,0
5584,4303520,0,0,0,19,-10,2045,0,0,0,0
5588,4305520,0,0,0,18,-10,2045,0,0,0,0
5592,4307520,0,0,0,17,-11,2045,0,0,0,0
5596,4309501,0,0,0,17,-11,2045,0,0,0,0
5600,4311501,0,0,0,16,-12,2045,0,0,0,0
5604,4313501,0,0,0,16,-12,2044,0,0,0,0
5608,4315526,0,0,0,15,-12,2043,0,0,0,0
5612,4317526,0,0,0,15,-12,2043,0,0,0,0
5616,4319526,0,0,0,16,-12,2042,0,0,0,0
5620,4321497,0,0,0,16,-13,2042,0,0,0,0
5624,4323497,0,0,0,16,-13,2043,0,0,0,0
5628,4325497,0,0,0,16,-14,2043,0,0,0,0
5632,4327477,0,0,0,16,-14,2043,0,0,0,0
5636,4329478,0,0,0,15,-14,2044,0,0,0,0
5640,4331478,0,0,0,15,-14,2045,0,0,0,0
5644,4333478,0,0,0,14,-14,2045,0,0,0,0
5648,4335502,0,0,0,14,-13,2045,0,0,0,0
5652,4337502,0,0,0,13,-14,2044,0,0,0,0
5656,4339502,0,0,0,14,-14,2044,0,0,0,0
5660,4341474,0,0,0,14,-14,2044,0,0,0,0
5664,4343474,0,0,0,14,-14,2044,0,0,0,0
5668,4345474,0,0,0,15,-14,2044,0,0,0,0
5672,4347454,0,0,0,15,-14,2045,0,0,0,0
5676,4349454,0,0,0,15,-13,2045,0,0,0,0
5680,4351454,0,0,0,16,-12,2045,0,0,0,0
5684,4353479,0,0,0,17,-12,2045,0,0,0,0
5688,4355479,0,0,0,17,-12,2044,0,0,0,0
5692,4357479,0,0,0,17,-12,2044,0,0,0,0
5696,4359450,0,0,0,17,-12,2044,0,0,0,0
5700,4361450,0,0,0,17,-12,2045,0,0,0,0
5704,4363450,0,0,0,17,-12,2045,0,0,0,0
5708,4365431,0,0,0,16,-12,2045,0,0,0,0
5712,4367431,0,0,0,16,-12,2046,0,0,0,0
