Product,Blackbox flight data recorder by Nicholas Sherlock,,,,,,,,,,,,,,
firmwareType,5,,,,,,,,,,,,,,
firmware,5,,,,,,,,,,,,,,
firmwarePatch,0,,,,,,,,,,,,,,
firmwareVersion,5.0.0,,,,,,,,,,,,,,
Firmware revision,Indiflight 5.0.0 (norevision) STM32H743,,,,,,,,,,,,,,
Firmware date,Oct 13 2023 15:29:56,,,,,,,,,,,,,,
Board information,MTKS MATEKH743,,,,,,,,,,,,,,
Log start datetime,2023-10-13T13:40:17.781+00:00,,,,,,,,,,,,,,
Craft name,,,,,,,,,,,,,,,
frameIntervalI,64,,,,,,,,,,,,,,
frameIntervalPNum,1,,,,,,,,,,,,,,
frameIntervalPDenom,4,,,,,,,,,,,,,,
minthrottle,1070,,,,,,,,,,,,,,
maxthrottle,2000,,,,,,,,,,,,,,
gyroScale,1.74532925199433E-08,,,,,,,,,,,,,,
motorOutput,"158,2047",,,,,,,,,,,,,,
acc_1G,2048,,,,,,,,,,,,,,
vbatscale,110,,,,,,,,,,,,,,
vbatmincellvoltage,330,,,,,,,,,,,,,,
vbatwarningcellvoltage,350,,,,,,,,,,,,,,
vbatmaxcellvoltage,430,,,,,,,,,,,,,,
vbatref,1540,,,,,,,,,,,,,,
currentMeterOffset,0,,,,,,,,,,,,,,
currentMeterScale,250,,,,,,,,,,,,,,
looptime,125,,,,,,,,,,,,,,
gyro_sync_denom,1,,,,,,,,,,,,,,
pid_process_denom,4,,,,,,,,,,,,,,
thrMid,50,,,,,,,,,,,,,,
thrExpo,0,,,,,,,,,,,,,,
tpa_mode,1,,,,,,,,,,,,,,
tpa_rate,65,,,,,,,,,,,,,,
tpa_breakpoint,1350,,,,,,,,,,,,,,
rc_rates,"7,7,7",,,,,,,,,,,,,,
rc_expo,"0,0,0",,,,,,,,,,,,,,
rates,"67,67,40",,,,,,,,,,,,,,
rate_limits,"1998,1998,1998",,,,,,,,,,,,,,
rollPID,"45,80,40,30,120",,,,,,,,,,,,,,
pitchPID,"47,84,46,34,125",,,,,,,,,,,,,,
yawPID,"45,80,0,0,120",,,,,,,,,,,,,,
levelPID,"50,50,75",,,,,,,,,,,,,,
magPID,"40,,",,,,,,,,,,,,,,
d_min_gain,37,,,,,,,,,,,,,,
d_min_advance,20,,,,,,,,,,,,,,
dterm_filter_type,0,,,,,,,,,,,,,,
dterm_lpf_hz,22,,,,,,,,,,,,,,
dterm_lpf_dyn_hz,150,,,,,,,,,,,,,,
dterm_filter2_type,0,,,,,,,,,,,,,,
dterm_lpf2_hz,45,,,,,,,,,,,,,,
yaw_lpf_hz,0,,,,,,,,,,,,,,
dterm_notch_hz,0,,,,,,,,,,,,,,
dterm_notch_cutoff,0,,,,,,,,,,,,,,
itermWindupPointPercent,85,,,,,,,,,,,,,,
iterm_relax,1,,,,,,,,,,,,,,
iterm_relax_type,1,,,,,,,,,,,,,,
iterm_relax_cutoff,15,,,,,,,,,,,,,,
pidAtMinThrottle,1,,,,,,,,,,,,,,
anti_gravity_gain,80,,,,,,,,,,,,,,
abs_control_gain,0,,,,,,,,,,,,,,
use_integrated_yaw,0,,,,,,,,,,,,,,
ff_transition,0,,,,,,,,,,,,,,
ff_averaging,0,,,,,,,,,,,,,,
ff_smooth_factor,25,,,,,,,,,,,,,,
ff_jitter_factor,7,,,,,,,,,,,,,,
ff_boost,15,,,,,,,,,,,,,,
ff_max_rate_limit,90,,,,,,,,,,,,,,
yawRateAccelLimit,0,,,,,,,,,,,,,,
rateAccelLimit,0,,,,,,,,,,,,,,
pidSumLimit,500,,,,,,,,,,,,,,
pidSumLimitYaw,400,,,,,,,,,,,,,,
deadband,0,,,,,,,,,,,,,,
yaw_deadband,0,,,,,,,,,,,,,,
gyro_lpf,0,,,,,,,,,,,,,,
gyro_soft_type,0,,,,,,,,,,,,,,
gyro_lowpass_hz,75,,,,,,,,,,,,,,
gyro_lowpass_dyn_hz,500,,,,,,,,,,,,,,
gyro_soft2_type,0,,,,,,,,,,,,,,
gyro_lowpass2_hz,150,,,,,,,,,,,,,,
gyro_notch_hz,"0,0",,,,,,,,,,,,,,
gyro_notch_cutoff,"0,0",,,,,,,,,,,,,,
gyro_to_use,0,,,,,,,,,,,,,,
dyn_notch_max_hz,600,,,,,,,,,,,,,,
dyn_notch_count,0,,,,,,,,,,,,,,
dyn_notch_q,500,,,,,,,,,,,,,,
dyn_notch_min_hz,100,,,,,,,,,,,,,,
dshot_bidir,1,,,,,,,,,,,,,,
motor_poles,12,,,,,,,,,,,,,,
gyro_rpm_notch_harmonics,3,,,,,,,,,,,,,,
gyro_rpm_notch_q,500,,,,,,,,,,,,,,
gyro_rpm_notch_min,60,,,,,,,,,,,,,,
rpm_filter_fade_range_hz,50,,,,,,,,,,,,,,
rpm_notch_lpf,150,,,,,,,,,,,,,,
acc_lpf_hz,2500,,,,,,,,,,,,,,
acc_hardware,0,,,,,,,,,,,,,,
baro_hardware,0,,,,,,,,,,,,,,
gyro_cal_on_first_arm,0,,,,,,,,,,,,,,
airmode_activate_throttle,25,,,,,,,,,,,,,,
serialrx_provider,2,,,,,,,,,,,,,,
unsynced_fast_pwm,0,,,,,,,,,,,,,,
fast_pwm_protocol,7,,,,,,,,,,,,,,
motor_pwm_rate,480,,,,,,,,,,,,,,
digitalIdleOffset,550,,,,,,,,,,,,,,
debug_mode,0,,,,,,,,,,,,,,
features,272893064,,,,,,,,,,,,,,
rc_smoothing_mode,1,,,,,,,,,,,,,,
rc_smoothing_auto_factor_setpoint,30,,,,,,,,,,,,,,
rc_smoothing_auto_factor_throttle,30,,,,,,,,,,,,,,
rc_smoothing_feedforward_hz,0,,,,,,,,,,,,,,
rc_smoothing_setpoint_hz,0,,,,,,,,,,,,,,
rc_smoothing_throttle_hz,0,,,,,,,,,,,,,,
rc_smoothing_debug_axis,0,,,,,,,,,,,,,,
rc_smoothing_active_cutoffs_ff_sp_thr,"42,42,42",,,,,,,,,,,,,,
rc_smoothing_rx_average,8988,,,,,,,,,,,,,,
rates_type,3,,,,,,,,,,,,,,
fields_disabled_mask,2677,,,,,,,,,,,,,,
blackbox_high_resolution,0,,,,,,,,,,,,,,
vbat_sag_compensation,0,,,,,,,,,,,,,,
dynamic_idle_min_rpm,0,,,,,,,,,,,,,,
dyn_idle_p_gain,50,,,,,,,,,,,,,,
dyn_idle_i_gain,50,,,,,,,,,,,,,,
dyn_idle_d_gain,50,,,,,,,,,,,,,,
dyn_idle_max_increase,150,,,,,,,,,,,,,,
simplified_pids_mode,2,,,,,,,,,,,,,,
simplified_master_multiplier,100,,,,,,,,,,,,,,
simplified_i_gain,100,,,,,,,,,,,,,,
simplified_d_gain,100,,,,,,,,,,,,,,
simplified_pi_gain,100,,,,,,,,,,,,,,
simplified_dmax_gain,100,,,,,,,,,,,,,,
simplified_feedforward_gain,100,,,,,,,,,,,,,,
simplified_pitch_d_gain,100,,,,,,,,,,,,,,
simplified_pitch_pi_gain,100,,,,,,,,,,,,,,
simplified_dterm_filter,1,,,,,,,,,,,,,,
simplified_dterm_filter_multiplier,30,,,,,,,,,,,,,,
simplified_gyro_filter,1,,,,,,,,,,,,,,
simplified_gyro_filter_multiplier,30,,,,,,,,,,,,,,
motor_output_limit,70,,,,,,,,,,,,,,
throttle_limit_type,0,,,,,,,,,,,,,,
throttle_limit_percent,100,,,,,,,,,,,,,,
throttle_boost,5,,,,,,,,,,,,,,
throttle_boost_cutoff,15,,,,,,,,,,,,,,
loopIteration,time,gyroADC[0],gyroADC[1],gyroADC[2],accSmooth[0],accSmooth[1],accSmooth[2],motor[0],motor[1],motor[2],motor[3],quat[0],quat[1],quat[2],quat[3]
0,582330626,0,0,0,10,-16,2051,158,158,158,158,-8126,30,-18,-98
4,582332610,0,0,0,9,-17,2051,158,158,158,158,-8126,30,-18,-98
8,582334594,0,0,0,10,-17,2051,158,158,158,158,-8126,30,-18,-98
12,582336578,0,0,0,10,-17,2051,158,158,158,158,-8126,30,-18,-98
16,582338562,0,0,0,10,-17,2051,158,158,158,158,-8126,30,-18,-98
20,582340546,0,0,0,10,-17,2051,158,158,158,158,-8126,30,-18,-98
24,582342530,0,0,0,10,-17,2051,158,158,158,158,-8126,30,-18,-98
28,582344514,0,0,0,10,-16,2051,158,158,158,158,-8126,30,-18,-98
32,582346498,0,0,0,10,-16,2051,158,158,158,158,-8126,30,-18,-98
36,582348481,0,0,0,10,-16,2051,158,158,158,158,-8126,30,-18,-98
40,582350465,0,0,0,10,-16,2051,158,158,158,158,-8126,30,-18,-98
44,582352451,0,0,0,9,-16,2051,158,158,158,158,-8126,30,-18,-98
48,582354433,0,0,0,9,-16,2051,158,158,158,158,-8126,30,-18,-98
52,582356418,0,0,0,9,-15,2051,158,158,158,158,-8126,30,-18,-98
56,582358402,0,0,0,9,-15,2051,158,158,158,158,-8126,30,-18,-98
60,582360385,0,0,0,9,-15,2051,158,158,158,158,-8126,30,-18,-98
64,582362369,0,0,0,9,-15,2051,158,158,158,158,-8126,30,-18,-98
68,582364353,0,0,0,9,-16,2051,158,158,158,158,-8126,30,-18,-98
72,582366337,0,0,0,9,-16,2051,158,158,158,158,-8126,30,-18,-98
76,582368321,0,0,0,9,-16,2051,158,158,158,158,-8126,30,-18,-98
80,582370305,0,0,0,9,-16,2050,158,158,158,158,-8126,30,-18,-98
84,582372290,0,0,0,9,-16,2050,158,158,158,158,-8126,30,-18,-98
88,582374273,0,0,0,9,-16,2050,158,158,158,158,-8126,30,-18,-98
92,582376257,0,0,0,8,-16,2051,158,158,158,158,-8126,30,-18,-98
96,582378241,0,0,0,8,-16,2051,158,158,158,158,-8126,30,-18,-98
100,582380225,0,0,0,8,-16,2051,158,158,158,158,-8126,30,-18,-98
104,582382209,0,0,0,8,-17,2051,158,158,158,158,-8126,30,-18,-98
108,582384192,0,0,0,8,-17,2051,158,158,158,158,-8126,30,-18,-98
112,582386176,0,0,0,8,-16,2051,158,158,158,158,-8126,30,-18,-98
116,582388160,0,0,0,8,-16,2051,158,158,158,158,-8126,30,-18,-98
120,582390144,0,0,0,8,-16,2051,158,158,158,158,-8126,30,-18,-98
124,582392129,0,0,0,8,-16,2050,158,158,158,158,-8126,30,-18,-98
128,582394113,0,0,0,8,-16,2050,158,158,158,158,-8126,30,-18,-98
132,582396096,0,0,0,8,-16,2050,158,158,158,158,-8126,30,-18,-98
136,582398080,0,0,0,8,-16,2050,158,158,158,158,-8126,30,-18,-98
140,582400064,0,0,0,8,-17,2050,158,158,158,158,-8126,30,-18,-98
144,582402048,0,0,0,8,-16,2050,158,158,158,158,-8126,30,-18,-98
148,582404032,0,0,0,8,-17,2050,158,158,158,158,-8126,30,-18,-98
152,582406016,0,0,0,8,-17,2050,158,158,158,158,-8126,30,-18,-98
156,582408000,0,0,0,8,-17,2050,158,158,158,158,-8126,30,-18,-98
160,582409984,0,0,0,8,-17,2050,158,158,158,158,-8126,30,-18,-98
164,582411968,0,0,0,8,-17,2050,158,158,158,158,-8126,30,-18,-98
168,582413952,0,0,0,8,-17,2050,158,158,158,158,-8126,30,-18,-98
172,582415936,0,0,0,8,-17,2051,158,158,158,158,-8126,30,-18,-98
176,582417920,0,0,0,9,-17,2051,158,158,158,158,-8126,30,-18,-98
180,582419905,0,0,0,9,-16,2051,158,158,158,158,-8126,30,-18,-98
184,582421887,0,0,0,9,-16,2051,158,158,158,158,-8126,30,-18,-98
188,582423872,0,0,0,10,-16,2051,158,158,158,158,-8126,30,-18,-98
192,582425856,0,0,0,10,-16,2051,158,158,158,158,-8126,30,-18,-98
196,582427839,0,0,0,9,-16,2051,158,158,158,158,-8126,30,-18,-98
200,582429823,0,0,0,10,-15,2051,158,158,158,158,-8126,30,-18,-98
204,582431807,0,0,0,10,-15,2051,158,158,158,158,-8126,30,-18,-98
208,582433791,0,0,0,10,-15,2051,158,158,158,158,-8126,30,-18,-98
212,582435775,0,0,0,10,-16,2051,158,158,158,158,-8126,30,-18,-98
216,582437759,0,0,0,9,-16,2051,158,158,158,158,-8126,30,-18,-98
220,582439743,0,0,0,9,-16,2051,158,158,158,158,-8126,30,-18,-98
224,582441727,0,0,0,9,-16,2051,158,158,158,158,-8126,30,-18,-98
228,582443711,0,0,0,8,-16,2051,158,158,158,158,-8126,30,-18,-98
232,582445695,0,0,0,8,-15,2051,158,158,158,158,-8126,30,-18,-98
236,582447679,0,0,0,9,-15,2051,158,158,158,158,-8126,30,-18,-98
240,582449663,0,0,0,9,-15,2051,158,158,158,158,-8126,30,-18,-98
244,582451647,0,0,0,9,-15,2051,158,158,158,158,-8126,30,-18,-98
248,582453631,0,0,0,9,-15,2051,158,158,158,158,-8126,30,-18,-98
252,582455615,0,0,0,9,-15,2051,158,158,158,158,-8126,30,-18,-98
256,582457598,0,0,0,8,-15,2051,158,158,158,158,-8126,30,-18,-98
260,582459582,0,0,0,8,-15,2052,158,158,158,158,-8126,30,-18,-98
264,582461567,0,0,0,8,-15,2052,158,158,158,158,-8126,30,-18,-98
268,582463550,0,0,0,8,-15,2052,158,158,158,158,-8126,30,-18,-98
272,582465534,0,0,0,8,-15,2052,158,158,158,158,-8126,30,-18,-98
276,582467518,0,0,0,9,-15,2051,158,158,158,158,-8126,30,-18,-98
280,582469503,0,0,0,9,-15,2051,158,158,158,158,-8126,30,-18,-98
284,582471486,0,0,0,9,-15,2051,158,158,158,158,-8126,30,-18,-98
288,582473470,0,0,0,9,-15,2051,158,158,158,158,-8126,30,-18,-98
292,582475454,0,0,0,9,-16,2050,158,158,158,158,-8126,30,-18,-98
296,582477438,0,0,0,10,-16,2050,158,158,158,158,-8126,30,-18,-98
300,582479422,0,0,0,10,-16,2050,158,158,158,158,-8126,30,-18,-98
304,582481406,0,0,0,10,-16,2051,158,158,158,158,-8126,30,-18,-98
308,582483390,0,0,0,10,-17,2051,158,158,158,158,-8126,30,-18,-98
312,582485374,0,0,0,10,-16,2051,158,158,158,158,-8126,30,-18,-98
316,582487359,0,0,0,10,-16,2051,158,158,158,158,-8126,30,-18,-98
320,582489342,0,0,0,10,-16,2050,158,158,158,158,-8126,30,-18,-98
324,582491326,0,0,0,10,-16,2050,158,158,158,158,-8126,30,-18,-98
328,582493311,0,0,0,9,-16,2050,158,158,158,158,-8126,30,-18,-98
332,582495294,0,0,0,9,-16,2050,158,158,158,158,-8126,30,-18,-98
336,582497278,0,0,0,10,-16,2050,158,158,158,158,-8126,30,-18,-98
340,582499261,0,0,0,10,-16,2050,158,158,158,158,-8126,30,-18,-99
344,582501245,0,0,0,10,-16,2050,158,158,158,158,-8126,30,-18,-99
348,582503230,0,0,0,10,-16,2050,158,158,158,158,-8126,30,-18,-99
352,582505215,0,0,0,10,-16,2050,158,158,158,158,-8126,30,-18,-99
356,582507198,0,0,0,10,-16,2049,158,158,158,158,-8126,30,-18,-99
360,582509181,0,0,0,9,-16,2049,158,158,158,158,-8126,30,-18,-99
364,582511166,0,0,0,9,-16,2049,158,158,158,158,-8126,30,-18,-99
368,582513149,0,0,0,9,-16,2050,158,158,158,158,-8126,30,-18,-99
372,582515133,0,0,0,9,-16,2050,158,158,158,158,-8126,30,-18,-99
376,582517117,0,0,0,9,-16,2051,158,158,158,158,-8126,30,-18,-98
380,582519101,0,0,0,9,-16,2051,158,158,158,158,-8126,30,-18,-98
384,582521085,0,0,0,9,-16,2051,158,158,158,158,-8126,30,-18,-98
388,582523069,0,0,0,9,-16,2052,158,158,158,158,-8126,30,-18,-98
392,582525053,0,0,0,9,-16,2052,158,158,158,158,-8126,30,-18,-98
396,582527037,0,0,0,9,-15,2052,158,158,158,158,-8126,30,-18,-98
400,582529021,0,0,0,9,-15,2052,158,158,158,158,-8126,30,-18,-98
404,582531005,0,0,0,9,-16,2052,158,158,158,158,-8126,30,-18,-98
408,582532988,0,0,0,9,-15,2052,158,158,158,158,-8126,30,-18,-98
412,582534972,0,0,0,9,-15,2051,158,158,158,158,-8126,30,-18,-98
416,582536957,0,0,0,9,-15,2051,158,158,158,158,-8126,30,-18,-98
420,582538940,0,0,0,9,-15,2050,158,158,158,158,-8126,30,-18,-98
424,582540924,0,0,0,9,-15,2051,158,158,158,158,-8126,30,-18,-98
428,582542908,0,0,0,9,-15,2051,158,158,158,158,-8126,30,-18,-98
432,582544893,0,0,0,9,-16,2052,158,158,158,158,-8126,30,-18,-98
436,582546877,0,0,0,9,-16,2052,158,158,158,158,-8126,30,-18,-98
440,582548860,0,0,0,9,-16,2051,158,158,158,158,-8126,30,-18,-98
444,582550844,0,0,0,9,-16,2051,158,158,158,158,-8126,30,-18,-98
448,582552828,0,0,0,9,-16,2051,158,158,158,158,-8126,30,-18,-98
452,582554812,0,0,0,9,-16,2051,158,158,158,158,-8126,30,-18,-98
456,582556796,0,0,0,9,-16,2050,158,158,158,158,-8126,30,-18,-98
460,582558780,0,0,0,9,-16,2050,158,158,158,158,-8126,30,-18,-98
464,582560764,0,0,0,9,-16,2051,158,158,158,158,-8126,30,-18,-98
468,582562748,0,0,0,9,-15,2051,158,158,158,158,-8126,30,-18,-98
472,582564732,0,0,0,8,-15,2052,158,158,158,158,-8126,30,-18,-98
476,582566716,0,0,0,8,-15,2052,158,158,158,158,-8126,30,-18,-98
480,582568700,0,0,0,8,-15,2052,158,158,158,158,-8126,30,-18,-98
484,582570684,0,0,0,8,-15,2052,158,158,158,158,-8126,30,-18,-98
488,582572668,0,0,0,8,-15,2051,158,158,158,158,-8126,30,-18,-98
492,582574651,0,0,0,8,-16,2051,158,158,158,158,-8126,30,-18,-98
496,582576635,0,0,0,8,-16,2051,158,158,158,158,-8126,30,-18,-98
500,582578620,0,0,0,8,-16,2051,158,158,158,158,-8126,30,-18,-98
504,582580603,0,0,0,9,-16,2051,158,158,158,158,-8126,30,-18,-98
508,582582588,0,0,0,9,-16,2051,158,158,158,158,-8126,30,-18,-98
512,582584571,0,0,0,9,-16,2051,158,158,158,158,-8126,30,-18,-98
516,582586555,0,0,0,8,-16,2050,158,158,158,158,-8126,30,-18,-98
520,582588540,0,0,0,8,-15,2050,158,158,158,158,-8126,30,-18,-98
524,582590524,0,0,0,8,-15,2050,158,158,158,158,-8126,30,-18,-98
528,582592507,0,0,0,8,-15,2050,158,158,158,158,-8126,30,-18,-98
532,582594491,0,0,0,8,-15,2050,158,158,158,158,-8126,30,-18,-98
536,582596475,0,0,0,8,-15,2050,158,158,158,158,-8126,30,-18,-98
540,582598459,0,0,0,8,-15,2051,158,158,158,158,-8126,30,-18,-98
544,582600443,0,0,0,8,-15,2051,158,158,158,158,-8126,30,-18,-98
548,582602427,0,0,0,8,-15,2051,158,158,158,158,-8126,30,-18,-98
552,582604411,0,0,0,8,-15,2051,158,158,158,158,-8126,30,-18,-98
556,582606395,0,0,0,8,-15,2051,158,158,158,158,-8126,30,-18,-98
560,582608379,0,0,0,8,-15,2051,158,158,158,158,-8126,30,-18,-98
564,582610363,0,0,0,8,-15,2051,158,158,158,158,-8126,30,-18,-98
568,582612347,0,0,0,8,-15,2051,158,158,158,158,-8126,30,-18,-98
572,582614330,0,0,0,8,-15,2050,158,158,158,158,-8126,30,-18,-98
576,582616314,0,0,0,8,-15,2050,158,158,158,158,-8126,30,-18,-98
580,582618298,0,0,0,9,-15,2050,158,158,158,158,-8126,30,-18,-98
584,582620282,0,0,0,9,-15,2050,158,158,158,158,-8126,30,-18,-98
588,582622266,0,0,0,9,-15,2050,158,158,158,158,-8126,30,-18,-98
592,582624250,0,0,0,10,-16,2050,158,158,158,158,-8126,30,-18,-98
596,582626234,0,0,0,10,-16,2050,158,158,158,158,-8126,30,-18,-98
600,582628218,0,0,0,10,-16,2050,158,158,158,158,-8126,30,-18,-98
604,582630202,0,0,0,10,-16,2050,158,158,158,158,-8126,30,-18,-98
608,582632186,0,0,0,10,-16,2050,158,158,158,158,-8126,30,-18,-98
612,582634170,0,0,0,10,-16,2050,158,158,158,158,-8126,30,-18,-98
616,582636154,0,0,0,10,-16,2051,158,158,158,158,-8126,30,-18,-98
620,582638138,0,0,0,10,-16,2051,158,158,158,158,-8126,30,-18,-98
624,582640122,0,0,0,10,-17,2051,158,158,158,158,-8126,30,-18,-98
628,582642106,0,0,0,10,-17,2051,158,158,158,158,-8126,30,-18,-98
632,582644090,0,0,0,10,-16,2051,158,158,158,158,-8126,30,-18,-98
636,582646074,0,0,0,10,-16,2051,158,158,158,158,-8126,30,-18,-98
640,582648058,0,0,0,10,-16,2050,158,158,158,158,-8126,30,-18,-98
644,582650041,0,0,0,10,-16,2051,158,158,158,158,-8126,30,-18,-98
648,582652025,0,0,0,10,-16,2051,158,158,158,158,-8126,30,-18,-98
652,582654010,0,0,0,10,-16,2051,158,158,158,158,-8126,30,-18,-98
656,582655993,0,0,0,10,-17,2051,158,158,158,158,-8126,30,-18,-98
660,582657978,0,0,0,10,-17,2051,158,158,158,158,-8126,30,-18,-98
664,582659961,0,0,0,9,-17,2051,158,158,158,158,-8126,30,-18,-98
668,582661945,0,0,0,9,-17,2051,158,158,158,158,-8126,30,-18,-98
672,582663929,0,0,0,9,-17,2051,158,158,158,158,-8126,30,-18,-98
676,582665913,0,0,0,9,-17,2051,158,158,158,158,-8126,30,-18,-98
680,582667897,0,0,0,9,-17,2051,158,158,158,158,-8126,30,-18,-98
684,582669881,0,0,0,8,-16,2051,158,158,158,158,-8126,30,-18,-98
688,582671865,0,0,0,8,-16,2051,158,158,158,158,-8126,30,-18,-98
692,582673849,0,0,0,8,-16,2051,158,158,158,158,-8126,30,-18,-98
696,582675833,0,0,0,8,-16,2051,158,158,158,158,-8126,30,-18,-98
700,582677817,0,0,0,8,-16,2050,158,158,158,158,-8126,30,-18,-98
704,582679801,0,0,0,8,-16,2050,158,158,158,158,-8126,30,-18,-98
708,582681785,0,0,0,8,-17,2051,158,158,158,158,-8126,30,-18,-98
712,582683769,0,0,0,9,-16,2051,158,158,158,158,-8126,30,-18,-98
716,582685753,0,0,0,9,-16,2051,158,158,158,158,-8126,30,-18,-98
720,582687736,0,0,0,8,-16,2051,158,158,158,158,-8126,30,-18,-98
724,582689721,0,0,0,8,-16,2051,158,158,158,158,-8126,30,-18,-98
728,582691705,0,0,0,9,-15,2051,158,158,158,158,-8126,30,-18,-98
732,582693689,0,0,0,9,-16,2051,158,158,158,158,-8126,30,-18,-98
736,582695672,0,0,0,9,-16,2051,158,158,158,158,-8126,30,-18,-98
740,582697656,0,0,0,9,-16,2051,158,158,158,158,-8126,30,-18,-98
744,582699641,0,0,0,10,-16,2051,158,158,158,158,-8126,30,-18,-98
748,582701625,0,0,0,10,-16,2051,158,158,158,158,-8126,30,-18,-98
752,582703609,0,0,0,9,-16,2051,158,158,158,158,-8126,30,-18,-98
756,582705592,0,0,0,9,-16,2051,158,158,158,158,-8126,30,-18,-98
760,582707576,0,0,0,9,-16,2051,158,158,158,158,-8126,30,-18,-98
764,582709560,0,0,0,9,-16,2051,158,158,158,158,-8126,30,-18,-98
768,582711544,0,0,0,9,-16,2051,158,158,158,158,-8126,30,-18,-98
772,582713528,0,0,0,9,-16,2051,158,158,158,158,-8126,30,-18,-98
776,582715512,0,0,0,9,-17,2051,158,158,158,158,-8126,30,-18,-98
780,582717496,0,0,0,9,-17,2051,158,158,158,158,-8126,30,-18,-98
784,582719480,0,0,0,10,-17,2051,158,158,158,158,-8126,30,-18,-98
788,582721464,0,0,0,10,-16,2051,158,158,158,158,-8126,30,-18,-98
792,582723448,0,0,0,10,-16,2051,158,158,158,158,-8126,30,-18,-98
796,582725432,0,0,0,10,-16,2051,158,158,158,158,-8126,30,-18,-98
800,582727416,0,0,0,10,-16,2051,158,158,158,158,-8126,30,-18,-98
804,582729399,0,0,0,9,-16,2051,158,158,158,158,-8126,30,-18,-98
808,582731383,0,0,0,9,-16,2051,158,158,158,158,-8126,30,-18,-98
812,582733367,0,0,0,9,-16,2051,158,158,158,158,-8126,30,-18,-98
816,582735351,0,0,0,9,-16,2051,158,158,158,158,-8126,30,-18,-98
820,582737335,0,0,0,8,-16,2051,158,158,158,158,-8126,30,-18,-98
824,582739320,0,0,0,8,-16,2052,158,158,158,158,-8126,30,-18,-98
828,582741303,0,0,0,8,-16,2051,158,158,158,158,-8126,30,-18,-98
832,582743288,0,0,0,8,-16,2051,158,158,158,158,-8126,30,-18,-98
836,582745271,0,0,0,8,-16,2050,158,158,158,158,-8126,30,-18,-98
840,582747255,0,0,0,9,-16,2050,158,158,158,158,-8126,30,-18,-99
844,582749239,0,0,0,9,-16,2050,158,158,158,158,-8126,30,-18,-99
848,582751224,0,0,0,9,-15,2050,158,158,158,158,-8126,30,-18,-99
852,582753207,0,0,0,9,-15,2050,158,158,158,158,-8126,30,-18,-99
856,582755191,0,0,0,8,-15,2050,158,158,158,158,-8126,30,-18,-99
860,582757175,0,0,0,9,-14,2050,158,158,158,158,-8126,30,-18,-99
864,582759159,0,0,0,9,-15,2050,158,158,158,158,-8126,30,-18,-99
868,582761143,0,0,0,9,-15,2050,158,158,158,158,-8126,30,-18,-99
872,582763127,0,0,0,9,-14,2050,158,158,158,158,-8126,30,-18,-99
876,582765111,0,0,0,9,-15,2050,158,158,158,158,-8126,30,-18,-99
880,582767095,0,0,0,9,-15,2050,158,158,158,158,-8126,30,-18,-99
884,582769078,0,0,0,10,-16,2050,158,158,158,158,-8126,30,-18,-99
888,582771062,0,0,0,10,-16,2051,158,158,158,158,-8126,30,-18,-99
892,582773047,0,0,0,10,-16,2051,158,158,158,158,-8126,30,-18,-99
896,582775031,0,0,0,10,-16,2051,158,158,158,158,-8126,30,-18,-99
900,582777015,0,0,0,10,-16,2051,158,158,158,158,-8126,30,-18,-99
904,582778999,0,0,0,10,-16,2051,158,158,158,158,-8126,30,-18,-99
908,582780982,0,0,0,10,-16,2051,158,158,158,158,-8126,30,-18,-99
912,582782966,0,0,0,10,-16,2051,158,158,158,158,-8126,30,-18,-99
916,582784951,0,0,0,10,-16,2051,158,158,158,158,-8126,30,-19,-99
920,582786934,0,0,0,10,-16,2051,158,158,158,158,-8126,30,-19,-99
924,582788918,0,0,0,9,-17,2050,158,158,158,158,-8126,30,-19,-99
928,582790902,0,0,0,9,-16,2050,158,158,158,158,-8126,30,-19,-99
932,582792886,0,0,0,8,-16,2049,158,158,158,158,-8126,30,-19,-99
936,582794870,0,0,0,9,-16,2049,158,158,158,158,-8126,30,-19,-99
940,582796854,0,0,0,9,-15,2050,158,158,158,158,-8126,30,-19,-99
944,582798838,0,0,0,9,-15,2050,158,158,158,158,-8126,30,-19,-98
948,582800823,0,0,0,9,-15,2050,158,158,158,158,-8126,30,-19,-98
952,582802806,0,0,0,10,-15,2050,158,158,158,158,-8126,30,-19,-98
956,582804790,0,0,0,10,-15,2050,158,158,158,158,-8126,30,-19,-98
960,582806773,0,0,0,10,-15,2050,158,158,158,158,-8126,30,-19,-98
964,582808757,0,0,0,10,-15,2050,158,158,158,158,-8126,30,-19,-98
968,582810741,0,0,0,10,-15,2051,158,158,158,158,-8126,30,-19,-98
972,582812725,0,0,0,10,-15,2051,158,158,158,158,-8126,30,-19,-98
976,582814709,0,0,0,10,-15,2051,158,158,158,158,-8126,30,-19,-98
980,582816694,0,0,0,10,-15,2051,158,158,158,158,-8126,30,-19,-98
984,582818678,0,0,0,10,-15,2051,158,158,158,158,-8126,30,-19,-98
988,582820661,0,0,0,10,-15,2051,158,158,158,158,-8126,30,-19,-98
992,582822645,0,0,0,10,-15,2050,158,158,158,158,-8126,30,-19,-98
996,582824629,0,0,0,10,-15,2050,158,158,158,158,-8126,30,-19,-98
1000,582826613,0,0,0,10,-15,2050,158,158,158,158,-8126,30,-19,-98
1004,582828597,0,0,0,10,-15,2050,158,158,158,158,-8126,30,-19,-98
1008,582830581,0,0,0,10,-15,2050,158,158,158,158,-8126,30,-19,-98
1012,582832565,0,0,0,10,-15,2050,158,158,158,158,-8126,30,-19,-98
1016,582834549,0,0,0,10,-15,2051,158,158,158,158,-8126,30,-19,-98
1020,582836533,0,0,0,10,-15,2051,158,158,158,158,-8126,30,-19,-98
1024,582838517,0,0,0,9,-15,2051,158,158,158,158,-8126,30,-19,-98
1028,582840501,0,0,0,9,-15,2051,158,158,158,158,-8126,30,-19,-98
1032,582842485,0,0,0,9,-15,2051,158,158,158,158,-8126,30,-19,-98
1036,582844469,0,0,0,8,-15,2051,158,158,158,158,-8126,30,-19,-98
1040,582846453,0,0,0,8,-15,2051,158,158,158,158,-8126,30,-19,-98
1044,582848437,0,0,0,8,-15,2051,158,158,158,158,-8126,30,-19,-98
1048,582850420,0,0,0,8,-15,2051,158,158,158,158,-8126,30,-19,-98
1052,582852404,0,0,0,9,-16,2050,158,158,158,158,-8126,30,-19,-98
1056,582854388,0,0,0,9,-16,2050,158,158,158,158,-8126,30,-19,-98
1060,582856372,0,0,0,9,-16,2050,158,158,158,158,-8126,30,-19,-98
1064,582858356,0,0,0,9,-16,2050,158,158,158,158,-8126,30,-19,-98
1068,582860340,0,0,0,9,-16,2050,158,158,158,158,-8126,30,-19,-98
1072,582862324,0,0,0,9,-16,2050,158,158,158,158,-8126,30,-19,-98
1076,582864308,0,0,0,9,-15,2050,158,158,158,158,-8126,30,-19,-98
1080,582866292,0,0,0,10,-15,2050,158,158,158,158,-8126,30,-19,-98
1084,582868276,0,0,0,10,-15,2050,158,158,158,158,-8126,30,-19,-98
1088,582870260,0,0,0,10,-15,2050,158,158,158,158,-8126,30,-19,-98
1092,582872244,0,0,0,9,-15,2050,158,158,158,158,-8126,30,-19,-98
1096,582874228,0,0,0,9,-15,2051,158,158,158,158,-8126,30,-19,-98
1100,582876212,0,0,0,9,-15,2051,158,158,158,158,-8126,29,-19,-98
1104,582878196,0,0,0,9,-15,2051,158,158,158,158,-8126,29,-19,-98
1108,582880180,0,0,0,9,-16,2051,158,158,158,158,-8126,29,-19,-98
1112,582882164,0,0,0,9,-16,2051,158,158,158,158,-8126,29,-19,-98
1116,582884148,0,0,0,9,-15,2051,158,158,158,158,-8126,29,-19,-98
1120,582886132,0,0,0,8,-15,2051,158,158,158,158,-8126,29,-19,-98
1124,582888116,0,0,0,9,-15,2051,158,158,158,158,-8126,29,-19,-98
1128,582890100,0,0,0,9,-15,2051,158,158,158,158,-8126,29,-19,-98
1132,582892083,0,0,0,9,-16,2050,158,158,158,158,-8126,29,-19,-98
1136,582894068,0,0,0,9,-16,2050,158,158,158,158,-8126,29,-19,-98
1140,582896051,0,0,0,9,-15,2050,158,158,158,158,-8126,29,-19,-98
1144,582898035,0,0,0,9,-15,2050,158,158,158,158,-8126,29,-19,-98
1148,582900020,0,0,0,10,-15,2051,158,158,158,158,-8126,29,-19,-98
1152,582902003,0,0,0,10,-15,2051,158,158,158,158,-8126,29,-19,-98
1156,582903987,0,0,0,10,-16,2051,158,158,158,158,-8126,29,-19,-98
1160,582905971,0,0,0,10,-16,2051,158,158,158,158,-8126,29,-19,-98
1164,582907955,0,0,0,10,-16,2051,158,158,158,158,-8126,29,-19,-98
1168,582909939,0,0,0,10,-16,2051,158,158,158,158,-8126,29,-19,-98
1172,582911923,0,0,0,10,-16,2051,158,158,158,158,-8126,29,-19,-98
1176,582913907,0,0,0,9,-16,2051,158,158,158,158,-8126,29,-19,-98
1180,582915891,0,0,0,9,-16,2051,158,158,158,158,-8126,29,-19,-98
1184,582917877,0,0,0,9,-16,2051,158,158,158,158,-8126,29,-19,-98
1188,582919859,0,0,0,9,-17,2050,158,158,158,158,-8126,30,-19,-98
1192,582921843,0,0,0,9,-17,2050,158,158,158,158,-8126,30,-19,-98
1196,582923826,0,0,0,9,-17,2050,158,158,158,158,-8126,30,-19,-98
1200,582925810,0,0,0,9,-16,2050,158,158,158,158,-8126,30,-19,-98
1204,582927794,0,0,0,9,-16,2050,158,158,158,158,-8126,30,-19,-98
1208,582929779,0,0,0,9,-16,2050,158,158,158,158,-8126,30,-19,-98
1212,582931763,0,0,0,8,-16,2050,158,158,158,158,-8126,29,-19,-98
1216,582933746,0,0,0,8,-16,2051,158,158,158,158,-8126,29,-19,-98
1220,582935730,0,0,0,8,-15,2051,158,158,158,158,-8126,29,-19,-98
1224,582937714,0,0,0,8,-15,2051,158,158,158,158,-8126,29,-19,-98
1228,582939698,0,0,0,8,-15,2051,158,158,158,158,-8126,29,-19,-98
1232,582941682,0,0,0,8,-15,2052,158,158,158,158,-8126,29,-19,-98
1236,582943666,0,0,0,9,-15,2051,158,158,158,158,-8126,29,-19,-98
1240,582945650,0,0,0,9,-15,2051,158,158,158,158,-8126,29,-19,-98
1244,582947634,0,0,0,9,-15,2051,158,158,158,158,-8126,29,-19,-98
1248,582949618,0,0,0,9,-15,2051,158,158,158,158,-8126,29,-19,-98
1252,582951602,0,0,0,9,-15,2051,158,158,158,158,-8126,29,-19,-98
1256,582953586,0,0,0,9,-15,2051,158,158,158,158,-8126,29,-19,-98
1260,582955570,0,0,0,10,-15,2051,158,158,158,158,-8126,29,-19,-98
1264,582957554,0,0,0,9,-15,2050,158,158,158,158,-8126,29,-19,-98
1268,582959538,0,0,0,9,-15,2050,158,158,158,158,-8126,29,-19,-98
1272,582961521,0,0,0,9,-15,2050,158,158,158,158,-8126,29,-19,-98
1276,582963505,0,0,0,9,-15,2050,158,158,158,158,-8126,29,-19,-98
1280,582965489,0,0,0,9,-15,2050,158,158,158,158,-8126,29,-19,-98
1284,582967473,0,0,0,9,-16,2049,158,158,158,158,-8126,29,-19,-98
1288,582969457,0,0,0,9,-16,2049,158,158,158,158,-8126,29,-19,-98
1292,582971442,0,0,0,10,-16,2050,158,158,158,158,-8126,29,-19,-98
1296,582973425,0,0,0,10,-16,2050,158,158,158,158,-8126,29,-19,-98
1300,582975409,0,0,0,10,-16,2051,158,158,158,158,-8126,29,-19,-98
1304,582977393,0,0,0,11,-15,2051,158,158,158,158,-8126,29,-19,-98
1308,582979377,0,0,0,11,-15,2052,158,158,158,158,-8126,29,-19,-98
1312,582981361,0,0,0,10,-16,2052,158,158,158,158,-8126,29,-19,-98
1316,582983345,0,0,0,10,-16,2052,158,158,158,158,-8126,29,-19,-98
1320,582985329,0,0,0,9,-16,2051,158,158,158,158,-8126,29,-19,-98
1324,582987313,0,0,0,9,-16,2051,158,158,158,158,-8126,29,-19,-98
1328,582989297,0,0,0,8,-16,2051,158,158,158,158,-8126,29,-19,-98
1332,582991281,0,0,0,8,-15,2051,158,158,158,158,-8126,29,-19,-98
1336,582993265,0,0,0,9,-15,2050,158,158,158,158,-8126,29,-19,-98
1340,582995249,0,0,0,9,-15,2050,158,158,158,158,-8126,29,-19,-98
1344,582997233,0,0,0,9,-15,2050,158,158,158,158,-8126,29,-19,-98
1348,582999217,0,0,0,9,-15,2050,158,158,158,158,-8126,29,-19,-98
1352,583001201,0,0,0,9,-15,2050,158,158,158,158,-8126,29,-19,-98
1356,583003184,0,0,0,9,-15,2050,158,158,158,158,-8126,29,-19,-98
1360,583005168,0,0,0,9,-16,2050,158,158,158,158,-8126,29,-19,-98
1364,583007152,0,0,0,9,-16,2050,158,158,158,158,-8126,29,-19,-98
1368,583009137,0,0,0,9,-16,2050,158,158,158,158,-8126,29,-19,-98
1372,583011120,0,0,0,9,-16,2050,158,158,158,158,-8126,29,-19,-98
1376,583013104,0,0,0,9,-16,2050,158,158,158,158,-8126,29,-19,-98
1380,583015088,0,0,0,9,-15,2051,158,158,158,158,-8126,29,-19,-98
1384,583017072,0,0,0,9,-15,2051,158,158,158,158,-8126,29,-19,-98
1388,583019056,0,0,0,9,-15,2052,158,158,158,158,-8126,29,-19,-98
1392,583021040,0,0,0,9,-15,2052,158,158,158,158,-8126,29,-19,-98
1396,583023024,0,0,0,10,-15,2052,158,158,158,158,-8126,29,-19,-98
1400,583025008,0,0,0,10,-15,2052,158,158,158,158,-8126,29,-19,-98
1404,583026992,0,0,0,10,-15,2052,158,158,158,158,-8126,29,-19,-98
1408,583028976,0,0,0,10,-15,2052,158,158,158,158,-8126,29,-19,-98
1412,583030960,0,0,0,10,-15,2051,158,158,158,158,-8126,29,-19,-98
1416,583032944,0,0,0,10,-15,2051,158,158,158,158,-8126,29,-19,-98
1420,583034928,0,0,0,10,-15,2051,158,158,158,158,-8126,29,-19,-98
1424,583036912,0,0,0,10,-15,2051,158,158,158,158,-8126,29,-19,-98
1428,583038897,0,0,0,10,-15,2050,158,158,158,158,-8126,29,-19,-98
1432,583040880,0,0,0,9,-15,2050,158,158,158,158,-8126,29,-19,-98
1436,583042864,0,0,0,9,-15,2050,158,158,158,158,-8126,29,-19,-97
1440,583044847,0,0,0,9,-15,2050,158,158,158,158,-8126,29,-19,-97
1444,583046831,0,0,0,9,-15,2050,158,158,158,158,-8126,29,-19,-97
1448,583048815,0,0,0,10,-15,2051,158,158,158,158,-8126,29,-19,-97
1452,583050799,0,0,0,10,-15,2052,158,158,158,158,-8126,29,-19,-97
1456,583052783,0,0,0,10,-15,2052,158,158,158,158,-8126,29,-19,-97
1460,583054768,0,0,0,11,-15,2052,158,158,158,158,-8126,29,-19,-97
1464,583056751,0,0,0,11,-15,2052,158,158,158,158,-8126,29,-19,-97
1468,583058736,0,0,0,11,-15,2053,158,158,158,158,-8126,29,-19,-97
1472,583060719,0,0,0,11,-14,2053,158,158,158,158,-8126,29,-19,-97
1476,583062703,0,0,0,11,-14,2052,158,158,158,158,-8126,29,-19,-97
1480,583064687,0,0,0,11,-14,2052,158,158,158,158,-8126,29,-19,-97
1484,583066671,0,0,0,11,-14,2052,158,158,158,158,-8126,29,-19,-97
1488,583068655,0,0,0,11,-15,2051,158,158,158,158,-8126,29,-19,-97
1492,583070639,0,0,0,11,-15,2051,158,158,158,158,-8126,29,-19,-97
1496,583072623,0,0,0,10,-16,2051,158,158,158,158,-8126,29,-19,-97
1500,583074607,0,0,0,10,-16,2051,158,158,158,158,-8126,29,-19,-97
1504,583076591,0,0,0,10,-15,2051,158,158,158,158,-8126,29,-19,-97
1508,583078575,0,0,0,10,-15,2051,158,158,158,158,-8126,29,-19,-97
1512,583080559,0,0,0,10,-15,2051,158,158,158,158,-8126,29,-19,-97
1516,583082543,0,0,0,10,-15,2050,158,158,158,158,-8126,29,-19,-97
1520,583084527,0,0,0,9,-16,2050,158,158,158,158,-8126,29,-19,-97
1524,583086510,0,0,0,9,-16,2050,158,158,158,158,-8126,29,-19,-97
1528,583088495,0,0,0,9,-16,2050,158,158,158,158,-8126,29,-19,-97
1532,583090479,0,0,0,10,-15,2050,158,158,158,158,-8126,29,-19,-97
1536,583092462,0,0,0,10,-15,2050,158,158,158,158,-8126,29,-19,-97
1540,583094447,0,0,0,10,-14,2051,158,158,158,158,-8126,29,-19,-97
1544,583096430,0,0,0,10,-14,2051,158,158,158,158,-8126,29,-19,-97
1548,583098415,0,0,0,10,-14,2051,158,158,158,158,-8126,29,-19,-97
1552,583100398,0,0,0,11,-15,2051,158,158,158,158,-8126,29,-19,-97
1556,583102382,0,0,0,10,-15,2052,158,158,158,158,-8126,29,-19,-97
1560,583104366,0,0,0,10,-15,2052,158,158,158,158,-8126,29,-19,-97
1564,583106350,0,0,0,10,-15,2051,158,158,158,158,-8126,29,-19,-97
1568,583108334,0,0,0,11,-15,2051,158,158,158,158,-8126,29,-19,-97
1572,583110318,0,0,0,10,-15,2050,158,158,158,158,-8126,29,-19,-97
1576,583112302,0,0,0,10,-15,2050,158,158,158,158,-8126,29,-19,-97
1580,583114286,0,0,0,10,-15,2050,158,158,158,158,-8126,29,-19,-97
1584,583116270,0,0,0,10,-16,2050,158,158,158,158,-8126,29,-19,-97
1588,583118254,0,0,0,9,-16,2050,158,158,158,158,-8126,29,-19,-97
1592,583120238,0,0,0,9,-15,2050,158,158,158,158,-8126,29,-19,-97
1596,583122222,0,0,0,9,-15,2050,158,158,158,158,-8126,29,-19,-97
1600,583124205,0,0,0,9,-15,2050,158,158,158,158,-8126,29,-19,-97
1604,583126190,0,0,0,9,-15,2050,158,158,158,158,-8126,29,-19,-97
1608,583128173,0,0,0,9,-15,2050,158,158,158,158,-8126,29,-19,-97
1612,583130158,0,0,0,9,-15,2050,158,158,158,158,-8126,29,-19,-97
1616,583132141,0,0,0,9,-15,2050,158,158,158,158,-8126,29,-19,-97
1620,583134125,0,0,0,9,-15,2050,158,158,158,158,-8126,29,-19,-97
1624,583136109,0,0,0,9,-15,2050,158,158,158,158,-8126,29,-19,-97
1628,583138094,0,0,0,9,-15,2050,158,158,158,158,-8126,29,-19,-97
1632,583140078,0,0,0,9,-15,2050,158,158,158,158,-8126,29,-19,-97
1636,583142061,0,0,0,9,-16,2050,158,158,158,158,-8126,29,-19,-97
1640,583144045,0,0,0,8,-16,2050,158,158,158,158,-8126,29,-19,-97
1644,583146029,0,0,0,8,-16,2050,158,158,158,158,-8126,29,-19,-97
1648,583148013,0,0,0,8,-15,2050,158,158,158,158,-8126,29,-19,-97
1652,583149997,0,0,0,8,-15,2051,158,158,158,158,-8126,29,-19,-97
1656,583151981,0,0,0,8,-15,2051,158,158,158,158,-8126,29,-19,-97
1660,583153965,0,0,0,9,-15,2051,158,158,158,158,-8126,29,-19,-97
1664,583155949,0,0,0,9,-15,2051,158,158,158,158,-8126,29,-19,-96
1668,583157933,0,0,0,9,-15,2051,158,158,158,158,-8126,29,-19,-96
1672,583159917,0,0,0,9,-15,2051,158,158,158,158,-8126,29,-19,-96
1676,583161901,0,0,0,9,-16,2051,158,158,158,158,-8126,29,-19,-96
1680,583163884,0,0,0,9,-16,2050,158,158,158,158,-8126,29,-19,-96
1684,583165868,0,0,0,9,-16,2051,158,158,158,158,-8126,29,-19,-96
1688,583167852,0,0,0,9,-16,2051,158,158,158,158,-8126,29,-19,-96
1692,583169836,0,0,0,9,-16,2051,158,158,158,158,-8126,29,-19,-96
1696,583171820,0,0,0,9,-16,2051,158,158,158,158,-8126,29,-19,-96
1700,583173804,0,0,0,9,-15,2051,158,158,158,158,-8126,29,-19,-96
1704,583175789,0,0,0,9,-15,2051,158,158,158,158,-8126,29,-19,-96
1708,583177772,0,0,0,9,-15,2051,158,158,158,158,-8126,29,-19,-96
1712,583179757,0,0,0,9,-15,2051,158,158,158,158,-8126,29,-19,-96
1716,583181741,0,0,0,9,-15,2051,158,158,158,158,-8126,29,-19,-96
1720,583183724,0,0,0,9,-15,2051,158,158,158,158,-8126,29,-19,-96
1724,583185708,0,0,0,9,-15,2051,158,158,158,158,-8126,29,-19,-96
1728,583187692,0,0,0,10,-15,2051,158,158,158,158,-8126,29,-19,-96
1732,583189676,0,0,0,10,-15,2050,158,158,158,158,-8126,29,-19,-96
1736,583191660,0,0,0,10,-15,2050,158,158,158,158,-8126,29,-19,-96
1740,583193644,0,0,0,10,-15,2050,158,158,158,158,-8126,29,-19,-96
1744,583195628,0,0,0,10,-15,2050,158,158,158,158,-8126,29,-19,-96
1748,583197612,0,0,0,9,-15,2050,158,158,158,158,-8126,29,-19,-96
1752,583199596,0,0,0,10,-14,2050,158,158,158,158,-8126,29,-19,-96
1756,583201580,0,0,0,9,-15,2049,158,158,158,158,-8126,29,-19,-96
1760,583203564,0,0,0,9,-15,2050,158,158,158,158,-8126,29,-19,-96
1764,583205548,0,0,0,10,-15,2050,158,158,158,158,-8126,29,-19,-96
1768,583207531,0,0,0,10,-15,2050,158,158,158,158,-8126,29,-19,-96
1772,583209515,0,0,0,10,-15,2051,158,158,158,158,-8126,29,-19,-96
1776,583211499,0,0,0,10,-15,2051,158,158,158,158,-8126,29,-19,-96
1780,583213483,0,0,0,10,-15,2051,158,158,158,158,-8126,29,-19,-96
1784,583215467,0,0,0,11,-15,2052,158,158,158,158,-8126,29,-19,-96
1788,583217452,0,0,0,10,-15,2052,158,158,158,158,-8126,29,-19,-96
1792,583219436,0,0,0,10,-15,2052,158,158,158,158,-8126,29,-19,-96
1796,583221419,0,0,0,10,-14,2052,158,158,158,158,-8126,29,-19,-96
1800,583223403,0,0,0,10,-14,2052,158,158,158,158,-8126,29,-19,-96
1804,583225387,0,0,0,10,-14,2052,158,158,158,158,-8126,29,-19,-96
1808,583227371,0,0,0,10,-14,2052,158,158,158,158,-8126,29,-19,-96
1812,583229355,0,0,0,10,-13,2052,158,158,158,158,-8126,29,-19,-96
1816,583231339,0,0,0,10,-14,2052,158,158,158,158,-8126,29,-19,-96
1820,583233323,0,0,0,10,-14,2052,158,158,158,158,-8126,29,-19,-96
1824,583235307,0,0,0,10,-14,2051,158,158,158,158,-8126,29,-19,-96
1828,583237294,0,0,0,10,-15,2051,158,158,158,158,-8126,29,-19,-96
1832,583239275,0,0,0,10,-15,2052,158,158,158,158,-8126,29,-19,-96
1836,583241258,0,0,0,10,-15,2051,158,158,158,158,-8126,29,-19,-96
1840,583243243,0,0,0,10,-15,2051,158,158,158,158,-8126,29,-19,-96
1844,583245227,0,0,0,10,-15,2051,158,158,158,158,-8126,29,-19,-96
1848,583247211,0,0,0,10,-15,2051,158,158,158,158,-8126,29,-19,-96
1852,583249195,0,0,0,10,-15,2051,158,158,158,158,-8126,29,-19,-96
1856,583251178,0,0,0,10,-15,2050,158,158,158,158,-8126,29,-19,-96
1860,583253162,0,0,0,9,-16,2050,158,158,158,158,-8126,29,-19,-96
1864,583255148,0,0,0,9,-15,2050,158,158,158,158,-8126,29,-19,-96
1868,583257130,0,0,0,10,-15,2050,158,158,158,158,-8126,29,-19,-96
1872,583259114,0,0,0,10,-16,2050,158,158,158,158,-8126,29,-19,-96
1876,583261098,0,0,0,10,-16,2050,158,158,158,158,-8126,29,-19,-96
1880,583263083,0,0,0,11,-16,2050,158,158,158,158,-8126,29,-19,-96
1884,583265066,0,0,0,11,-16,2050,158,158,158,158,-8126,29,-19,-96
1888,583267050,0,0,0,11,-16,2050,158,158,158,158,-8126,29,-19,-96
1892,583269034,0,0,0,11,-16,2050,158,158,158,158,-8126,29,-19,-96
1896,583271018,0,0,0,11,-15,2050,158,158,158,158,-8126,29,-20,-96
1900,583273003,0,0,0,11,-15,2050,158,158,158,158,-8126,29,-20,-96
1904,583274986,0,0,0,11,-16,2050,158,158,158,158,-8126,29,-20,-96
1908,583276970,0,0,0,10,-16,2050,158,158,158,158,-8126,29,-20,-96
1912,583278954,0,0,0,10,-16,2050,158,158,158,158,-8126,29,-20,-96
1916,583280938,0,0,0,9,-16,2051,158,158,158,158,-8126,29,-20,-96
1920,583282922,0,0,0,9,-16,2051,158,158,158,158,-8126,29,-20,-96
1924,583284905,0,0,0,9,-16,2051,158,158,158,158,-8126,29,-20,-96
1928,583286889,0,0,0,9,-16,2051,158,158,158,158,-8126,29,-20,-96
1932,583288874,0,0,0,9,-16,2051,158,158,158,158,-8126,29,-20,-96
1936,583290858,0,0,0,10,-16,2051,158,158,158,158,-8126,29,-20,-96
1940,583292841,0,0,0,10,-16,2051,158,158,158,158,-8126,29,-20,-96
1944,583294826,0,0,0,10,-16,2051,158,158,158,158,-8126,29,-20,-96
1948,583296809,0,0,0,9,-16,2051,158,158,158,158,-8126,29,-20,-96
1952,583298793,0,0,0,9,-16,2051,158,158,158,158,-8126,29,-20,-96
1956,583300778,0,0,0,10,-15,2050,158,158,158,158,-8126,29,-20,-96
1960,583302761,0,0,0,10,-15,2051,158,158,158,158,-8126,29,-20,-96
1964,583304745,0,0,0,10,-15,2051,158,158,158,158,-8126,29,-20,-96
1968,583306730,0,0,0,10,-15,2051,158,158,158,158,-8126,29,-20,-95
1972,583308713,0,0,0,10,-15,2051,158,158,158,158,-8126,29,-20,-95
1976,583310697,0,0,0,10,-15,2051,158,158,158,158,-8126,29,-20,-95
1980,583312681,0,0,0,10,-15,2051,158,158,158,158,-8126,29,-20,-95
1984,583314665,0,0,0,10,-15,2051,158,158,158,158,-8126,29,-20,-95
1988,583316649,0,0,0,10,-16,2051,158,158,158,158,-8126,29,-20,-95
1992,583318634,0,0,0,10,-16,2051,158,158,158,158,-8126,29,-20,-95
1996,583320617,0,0,0,10,-16,2052,158,158,158,158,-8126,29,-20,-95
2000,583322601,0,0,0,10,-16,2052,158,158,158,158,-8126,29,-20,-95
2004,583324585,0,0,0,10,-16,2051,158,158,158,158,-8126,29,-20,-95
2008,583326568,0,0,0,10,-15,2051,158,158,158,158,-8126,29,-20,-95
2012,583328553,0,0,0,10,-15,2051,158,158,158,158,-8126,29,-20,-95
2016,583330537,0,0,0,10,-16,2051,158,158,158,158,-8126,29,-20,-95
2020,583332520,0,0,0,9,-16,2050,158,158,158,158,-8126,29,-20,-95
2024,583334504,0,0,0,9,-16,2050,158,158,158,158,-8126,29,-20,-95
2028,583336488,0,0,0,9,-16,2050,158,158,158,158,-8126,29,-20,-95
2032,583338472,0,0,0,9,-16,2050,158,158,158,158,-8126,29,-20,-95
2036,583340457,0,0,0,9,-16,2050,158,158,158,158,-8126,29,-20,-95
2040,583342441,0,0,0,10,-16,2050,158,158,158,158,-8126,29,-20,-95
2044,583344424,0,0,0,10,-17,2050,158,158,158,158,-8126,29,-20,-95
2048,583346408,0,0,0,10,-17,2050,158,158,158,158,-8126,29,-20,-95
2052,583348392,0,0,0,10,-17,2050,158,158,158,158,-8126,29,-20,-95
2056,583350376,0,0,0,10,-17,2050,158,158,158,158,-8126,29,-20,-95
2060,583352360,0,0,0,10,-17,2050,158,158,158,158,-8126,29,-20,-95
2064,583354344,0,0,0,9,-17,2051,158,158,158,158,-8126,29,-20,-95
2068,583356328,0,0,0,9,-17,2051,158,158,158,158,-8126,29,-20,-95
2072,583358312,0,0,0,9,-16,2051,158,158,158,158,-8126,29,-20,-95
2076,583360296,0,0,0,9,-16,2051,158,158,158,158,-8126,29,-20,-95
2080,583362280,0,0,0,9,-16,2052,158,158,158,158,-8126,29,-20,-95
2084,583364264,0,0,0,9,-16,2052,158,158,158,158,-8126,29,-20,-95
2088,583366248,0,0,0,9,-16,2052,158,158,158,158,-8126,29,-20,-95
2092,583368231,0,0,0,9,-15,2052,158,158,158,158,-8126,29,-20,-95
2096,583370215,0,0,0,9,-15,2052,158,158,158,158,-8126,29,-20,-95
2100,583372200,0,0,0,9,-15,2052,158,158,158,158,-8126,29,-20,-95
2104,583374183,0,0,0,9,-15,2052,158,158,158,158,-8126,29,-20,-95
2108,583376167,0,0,0,9,-15,2051,158,158,158,158,-8126,29,-19,-95
2112,583378152,0,0,0,9,-15,2051,158,158,158,158,-8126,29,-19,-95
2116,583380135,0,0,0,9,-16,2051,158,158,158,158,-8126,29,-19,-95
2120,583382119,0,0,0,8,-16,2051,158,158,158,158,-8126,29,-19,-94
2124,583384103,0,0,0,8,-16,2051,158,158,158,158,-8126,29,-19,-94
2128,583386087,0,0,0,9,-15,2051,158,158,158,158,-8126,29,-19,-94
2132,583388071,0,0,0,9,-15,2051,158,158,158,158,-8126,29,-19,-94
2136,583390055,0,0,0,9,-15,2051,158,158,158,158,-8126,29,-19,-94
2140,583392039,0,0,0,9,-15,2051,158,158,158,158,-8126,29,-19,-94
2144,583394023,0,0,0,9,-16,2050,158,158,158,158,-8126,29,-19,-94
2148,583396007,0,0,0,9,-16,2050,158,158,158,158,-8126,29,-19,-94
2152,583397991,0,0,0,9,-16,2051,158,158,158,158,-8126,29,-19,-94
2156,583399975,0,0,0,9,-16,2051,158,158,158,158,-8126,29,-19,-94
2160,583401959,0,0,0,9,-16,2051,158,158,158,158,-8126,29,-19,-94
2164,583403943,0,0,0,9,-16,2050,158,158,158,158,-8126,29,-19,-94
2168,583405927,0,0,0,9,-16,2050,158,158,158,158,-8126,29,-19,-94
2172,583407911,0,0,0,10,-16,2050,158,158,158,158,-8126,29,-19,-94
2176,583409894,0,0,0,9,-16,2050,158,158,158,158,-8126,29,-19,-94
2180,583411879,0,0,0,9,-16,2050,158,158,158,158,-8126,29,-19,-94
2184,583413862,0,0,0,10,-16,2050,158,158,158,158,-8126,29,-19,-94
2188,583415847,0,0,0,10,-16,2050,158,158,158,158,-8126,29,-19,-94
2192,583417830,0,0,0,10,-16,2050,158,158,158,158,-8126,29,-19,-94
2196,583419814,0,0,0,10,-16,2050,158,158,158,158,-8126,29,-19,-94
2200,583421798,0,0,0,10,-16,2051,158,158,158,158,-8126,29,-19,-94
2204,583423782,0,0,0,10,-16,2051,158,158,158,158,-8126,29,-19,-94
2208,583425767,0,0,0,10,-15,2051,158,158,158,158,-8126,29,-19,-94
2212,583427751,0,0,0,10,-15,2051,158,158,158,158,-8126,29,-19,-94
2216,583429734,0,0,0,9,-16,2051,158,158,158,158,-8126,29,-19,-94
2220,583431718,0,0,0,9,-16,2051,158,158,158,158,-8126,29,-19,-94
2224,583433702,0,0,0,9,-16,2051,158,158,158,158,-8126,29,-19,-94
2228,583435686,0,0,0,9,-15,2051,158,158,158,158,-8126,29,-19,-94
2232,583437670,0,0,0,9,-15,2050,158,158,158,158,-8126,29,-19,-94
2236,583439654,0,0,0,9,-15,2050,158,158,158,158,-8126,29,-19,-94
2240,583441638,0,0,0,9,-15,2050,158,158,158,158,-8126,29,-19,-94
2244,583443622,0,0,0,9,-15,2050,158,158,158,158,-8126,29,-19,-94
2248,583445606,0,0,0,9,-15,2050,158,158,158,158,-8126,29,-19,-94
2252,583447590,0,0,0,9,-15,2050,158,158,158,158,-8126,29,-19,-94
2256,583449573,0,0,0,9,-15,2050,158,158,158,158,-8126,29,-19,-94
2260,583451558,0,0,0,9,-15,2050,158,158,158,158,-8126,29,-19,-94
2264,583453542,0,0,0,9,-15,2050,158,158,158,158,-8126,29,-19,-94
2268,583455525,0,0,0,9,-15,2050,158,158,158,158,-8126,29,-19,-94
2272,583457509,0,0,0,9,-15,2050,158,158,158,158,-8126,29,-19,-94
2276,583459494,0,0,0,9,-16,2050,158,158,158,158,-8126,29,-19,-94
2280,583461477,0,0,0,9,-16,2050,158,158,158,158,-8126,29,-19,-94
2284,583463462,0,0,0,9,-15,2050,158,158,158,158,-8126,29,-19,-94
2288,583465446,0,0,0,9,-15,2049,158,158,158,158,-8126,29,-19,-94
2292,583467429,0,0,0,9,-15,2050,158,158,158,158,-8126,29,-19,-94
2296,583469413,0,0,0,9,-14,2050,158,158,158,158,-8126,29,-19,-94
2300,583471397,0,0,0,9,-14,2050,158,158,158,158,-8126,29,-19,-94
2304,583473381,0,0,0,9,-15,2050,158,158,158,158,-8126,29,-19,-94
2308,583475365,0,0,0,9,-15,2049,158,158,158,158,-8126,29,-19,-94
2312,583477349,0,0,0,9,-15,2049,158,158,158,158,-8126,29,-19,-94
2316,583479333,0,0,0,10,-15,2049,158,158,158,158,-8126,29,-19,-94
2320,583481317,0,0,0,10,-15,2050,158,158,158,158,-8126,29,-19,-94
2324,583483301,0,0,0,10,-15,2050,158,158,158,158,-8126,29,-19,-94
2328,583485285,0,0,0,10,-15,2050,158,158,158,158,-8126,29,-19,-94
2332,583487269,0,0,0,10,-15,2051,158,158,158,158,-8126,29,-19,-94
2336,583489253,0,0,0,10,-15,2051,158,158,158,158,-8126,29,-19,-94
2340,583491237,0,0,0,10,-15,2051,158,158,158,158,-8126,29,-19,-94
2344,583493221,0,0,0,10,-15,2051,158,158,158,158,-8126,29,-19,-94
2348,583495205,0,0,0,9,-15,2051,158,158,158,158,-8126,29,-19,-94
2352,583497189,0,0,0,9,-15,2050,158,158,158,158,-8126,29,-19,-94
2356,583499172,0,0,0,9,-15,2050,158,158,158,158,-8126,29,-19,-94
2360,583501156,0,0,0,9,-15,2050,158,158,158,158,-8126,29,-19,-94
2364,583503142,0,0,0,9,-15,2050,158,158,158,158,-8126,29,-19,-94
2368,583505124,0,0,0,9,-15,2051,158,158,158,158,-8126,29,-19,-94
2372,583507108,0,0,0,9,-15,2051,158,158,158,158,-8126,29,-19,-94
2376,583509093,0,0,0,10,-16,2051,158,158,158,158,-8126,29,-19,-94
2380,583511076,0,0,0,10,-16,2051,158,158,158,158,-8126,29,-19,-94
2384,583513060,0,0,0,10,-16,2051,158,158,158,158,-8126,29,-19,-94
2388,583515044,0,0,0,10,-16,2051,158,158,158,158,-8126,29,-19,-94
2392,583517028,0,0,0,10,-16,2051,158,158,158,158,-8126,29,-19,-94
2396,583519012,0,0,0,10,-16,2050,158,158,158,158,-8126,29,-19,-94
2400,583520996,0,0,0,10,-15,2050,158,158,158,158,-8126,29,-19,-94
2404,583522980,0,0,0,10,-15,2050,158,158,158,158,-8126,29,-19,-94
2408,583524964,0,0,0,10,-15,2051,158,158,158,158,-8126,29,-19,-94
2412,583526948,0,0,0,10,-15,2051,158,158,158,158,-8126,29,-19,-94
2416,583528932,0,0,0,10,-14,2051,158,158,158,158,-8126,29,-19,-94
2420,583530916,0,0,0,10,-14,2051,158,158,158,158,-8126,29,-19,-94
2424,583532901,0,0,0,10,-15,2051,158,158,158,158,-8126,29,-19,-94
2428,583534884,0,0,0,10,-15,2051,158,158,158,158,-8126,29,-19,-94
2432,583536867,0,0,0,10,-15,2051,158,158,158,158,-8126,29,-19,-94
2436,583538851,0,0,0,10,-15,2051,158,158,158,158,-8126,29,-19,-95
2440,583540835,0,0,0,10,-15,2051,158,158,158,158,-8126,29,-19,-95
2444,583542819,0,0,0,10,-15,2051,158,158,158,158,-8126,29,-19,-95
2448,583544804,0,0,0,10,-14,2051,158,158,158,158,-8126,29,-19,-95
2452,583546787,0,0,0,10,-14,2051,158,158,158,158,-8126,29,-19,-95
2456,583548771,0,0,0,10,-14,2051,158,158,158,158,-8126,29,-19,-95
2460,583550755,0,0,0,10,-14,2050,158,158,158,158,-8126,29,-20,-95
2464,583552740,0,0,0,10,-14,2050,158,158,158,158,-8126,29,-20,-95
2468,583554723,0,0,0,9,-14,2049,158,158,158,158,-8126,29,-20,-95
2472,583556707,0,0,0,9,-14,2049,158,158,158,158,-8126,29,-20,-95
2476,583558691,0,0,0,9,-14,2049,158,158,158,158,-8126,29,-20,-95
2480,583560675,0,0,0,9,-14,2050,158,158,158,158,-8126,29,-20,-95
2484,583562659,0,0,0,9,-14,2050,158,158,158,158,-8126,29,-20,-95
2488,583564643,0,0,0,9,-15,2050,158,158,158,158,-8126,29,-20,-95
2492,583566627,0,0,0,9,-15,2050,158,158,158,158,-8126,29,-20,-95
2496,583568611,0,0,0,9,-15,2050,158,158,158,158,-8126,29,-19,-95
2500,583570595,0,0,0,9,-15,2051,158,158,158,158,-8126,29,-19,-95
2504,583572579,0,0,0,9,-15,2051,158,158,158,158,-8126,29,-19,-95
2508,583574563,0,0,0,9,-14,2051,158,158,158,158,-8126,29,-19,-95
2512,583576547,0,0,0,9,-14,2051,158,158,158,158,-8126,29,-19,-95
2516,583578531,0,0,0,9,-14,2051,158,158,158,158,-8126,29,-19,-95
2520,583580514,0,0,0,9,-14,2051,158,158,158,158,-8126,29,-19,-95
2524,583582498,0,0,0,9,-15,2051,158,158,158,158,-8126,29,-19,-95
2528,583584482,0,0,0,9,-15,2051,158,158,158,158,-8126,29,-19,-95
2532,583586467,0,0,0,8,-15,2051,158,158,158,158,-8126,29,-19,-95
2536,583588450,0,0,0,8,-15,2051,158,158,158,158,-8126,29,-19,-95
2540,583590435,0,0,0,8,-15,2051,158,158,158,158,-8126,29,-19,-95
2544,583592418,0,0,0,9,-15,2051,158,158,158,158,-8126,29,-19,-95
2548,583594402,0,0,0,9,-15,2051,158,158,158,158,-8126,29,-19,-95
2552,583596386,0,0,0,9,-16,2051,158,158,158,158,-8126,29,-19,-95
2556,583598370,0,0,0,8,-16,2050,158,158,158,158,-8126,29,-19,-95
2560,583600354,0,0,0,8,-16,2050,158,158,158,158,-8126,29,-19,-95
2564,583602338,0,0,0,8,-16,2050,158,158,158,158,-8126,29,-19,-95
2568,583604322,0,0,0,9,-16,2050,158,158,158,158,-8126,29,-19,-95
2572,583606306,0,0,0,9,-15,2050,158,158,158,158,-8126,29,-19,-95
2576,583608290,0,0,0,9,-15,2050,158,158,158,158,-8126,29,-19,-95
2580,583610274,0,0,0,9,-15,2051,158,158,158,158,-8126,29,-19,-95
2584,583612258,0,0,0,10,-15,2051,158,158,158,158,-8126,29,-19,-95
2588,583614242,0,0,0,10,-15,2050,158,158,158,158,-8126,29,-19,-95
2592,583616227,0,0,0,10,-15,2050,158,158,158,158,-8126,29,-19,-95
2596,583618209,0,0,0,10,-15,2050,158,158,158,158,-8126,29,-19,-95
2600,583620193,0,0,0,10,-16,2050,158,158,158,158,-8126,29,-19,-95
2604,583622178,0,0,0,10,-16,2050,158,158,158,158,-8126,29,-19,-95
2608,583624161,0,0,0,10,-16,2050,158,158,158,158,-8126,29,-19,-95
2612,583626145,0,0,0,10,-16,2050,158,158,158,158,-8126,29,-19,-95
2616,583628129,0,0,0,10,-16,2050,158,158,158,158,-8126,29,-19,-95
2620,583630113,0,0,0,10,-15,2051,158,158,158,158,-8126,29,-19,-95
2624,583632097,0,0,0,9,-16,2051,158,158,158,158,-8126,29,-19,-95
2628,583634081,0,0,0,9,-15,2051,158,158,158,158,-8126,29,-19,-95
2632,583636065,0,0,0,9,-15,2051,158,158,158,158,-8126,29,-19,-95
2636,583638049,0,0,0,9,-15,2051,158,158,158,158,-8126,29,-19,-95
2640,583640033,0,0,0,8,-15,2051,158,158,158,158,-8126,29,-19,-95
2644,583642017,0,0,0,8,-15,2051,158,158,158,158,-8126,29,-19,-95
2648,583644001,0,0,0,8,-15,2051,158,158,158,158,-8126,29,-19,-95
2652,583645985,0,0,0,8,-15,2051,158,158,158,158,-8126,29,-19,-95
2656,583647969,0,0,0,8,-16,2051,158,158,158,158,-8126,29,-19,-95
2660,583649953,0,0,0,8,-16,2051,158,158,158,158,-8126,29,-19,-95
2664,583651937,0,0,0,8,-16,2051,158,158,158,158,-8126,29,-19,-95
2668,583653921,0,0,0,8,-16,2051,158,158,158,158,-8126,29,-19,-95
2672,583655905,0,0,0,9,-16,2051,158,158,158,158,-8126,29,-19,-95
2676,583657889,0,0,0,9,-16,2051,158,158,158,158,-8126,29,-19,-95
2680,583659874,0,0,0,9,-16,2051,158,158,158,158,-8126,29,-19,-95
2684,583661857,0,0,0,9,-16,2051,158,158,158,158,-8126,29,-19,-95
2688,583663840,0,0,0,9,-16,2051,158,158,158,158,-8126,29,-19,-95
2692,583665824,0,0,0,9,-16,2051,158,158,158,158,-8126,29,-19,-95
2696,583667808,0,0,0,9,-16,2051,158,158,158,158,-8126,29,-19,-95
2700,583669792,0,0,0,9,-15,2051,158,158,158,158,-8126,29,-19,-95
2704,583671776,0,0,0,9,-15,2051,158,158,158,158,-8126,29,-19,-95
2708,583673760,0,0,0,9,-15,2051,158,158,158,158,-8126,29,-19,-95
2712,583675745,0,0,0,9,-15,2051,158,158,158,158,-8126,29,-19,-95
2716,583677729,0,0,0,9,-15,2051,158,158,158,158,-8126,29,-19,-95
2720,583679712,0,0,0,9,-15,2051,158,158,158,158,-8126,29,-19,-95
2724,583681696,0,0,0,9,-15,2050,158,158,158,158,-8126,29,-19,-95
2728,583683680,0,0,0,9,-16,2050,158,158,158,158,-8126,29,-19,-95
2732,583685664,0,0,0,10,-16,2050,158,158,158,158,-8126,29,-19,-95
2736,583687648,0,0,0,10,-16,2050,158,158,158,158,-8126,29,-19,-95
2740,583689632,0,0,0,10,-16,2050,158,158,158,158,-8126,29,-19,-95
2744,583691616,0,0,0,10,-15,2051,158,158,158,158,-8126,29,-19,-95
2748,583693600,0,0,0,9,-15,2051,158,158,158,158,-8126,29,-19,-95
2752,583695584,0,0,0,9,-15,2051,158,158,158,158,-8126,29,-19,-95
2756,583697568,0,0,0,9,-15,2051,158,158,158,158,-8126,29,-19,-95
2760,583699551,0,0,0,9,-15,2051,158,158,158,158,-8126,29,-19,-95
2764,583701536,0,0,0,10,-15,2051,158,158,158,158,-8126,29,-19,-95
2768,583703519,0,0,0,9,-15,2051,158,158,158,158,-8126,29,-19,-95
2772,583705503,0,0,0,9,-16,2051,158,158,158,158,-8126,29,-19,-95
2776,583707489,0,0,0,9,-16,2051,158,158,158,158,-8126,29,-19,-95
2780,583709472,0,0,0,9,-15,2050,158,158,158,158,-8126,29,-19,-95
2784,583711456,0,0,0,8,-15,2050,158,158,158,158,-8126,29,-19,-95
2788,583713439,0,0,0,8,-15,2050,158,158,158,158,-8126,29,-19,-95
2792,583715424,0,0,0,8,-14,2050,158,158,158,158,-8126,29,-19,-95
2796,583717407,0,0,0,8,-14,2049,158,158,158,158,-8126,29,-19,-95
2800,583719391,0,0,0,9,-14,2050,158,158,158,158,-8126,29,-19,-95
2804,583721375,0,0,0,9,-15,2050,158,158,158,158,-8126,29,-19,-95
2808,583723359,0,0,0,9,-15,2050,158,158,158,158,-8126,29,-19,-95
2812,583725344,0,0,0,10,-15,2050,158,158,158,158,-8126,29,-19,-95
2816,583727327,0,0,0,9,-15,2051,158,158,158,158,-8126,29,-19,-95
2820,583729311,0,0,0,9,-15,2051,158,158,158,158,-8126,29,-19,-95
2824,583731295,0,0,0,9,-15,2051,158,158,158,158,-8126,29,-19,-95
2828,583733281,0,0,0,9,-15,2051,158,158,158,158,-8126,29,-19,-95
2832,583735263,0,0,0,9,-15,2051,158,158,158,158,-8126,29,-19,-95
2836,583737248,0,0,0,9,-15,2051,158,158,158,158,-8126,29,-19,-95
2840,583739231,0,0,0,9,-15,2050,158,158,158,158,-8126,29,-19,-95
2844,583741215,0,0,0,9,-15,2050,158,158,158,158,-8126,29,-19,-95
2848,583743198,0,0,0,9,-15,2050,158,158,158,158,-8126,29,-19,-95
2852,583745182,0,0,0,9,-16,2051,158,158,158,158,-8126,29,-19,-95
2856,583747166,0,0,0,10,-16,2050,158,158,158,158,-8126,29,-19,-95
2860,583749150,0,0,0,10,-16,2050,158,158,158,158,-8126,29,-19,-95
2864,583751134,0,0,0,10,-16,2050,158,158,158,158,-8126,29,-19,-95
2868,583753118,0,0,0,9,-15,2050,158,158,158,158,-8126,29,-19,-95
2872,583755103,0,0,0,10,-15,2050,158,158,158,158,-8126,29,-19,-95
2876,583757086,0,0,0,9,-15,2049,158,158,158,158,-8126,29,-19,-95
2880,583759070,0,0,0,9,-15,2049,158,158,158,158,-8126,29,-19,-95
2884,583761054,0,0,0,9,-15,2049,158,158,158,158,-8126,29,-19,-95
2888,583763038,0,0,0,10,-16,2049,158,158,158,158,-8126,29,-19,-95
2892,583765023,0,0,0,10,-16,2050,158,158,158,158,-8126,29,-19,-95
2896,583767006,0,0,0,10,-16,2050,158,158,158,158,-8126,29,-19,-95
2900,583768991,0,0,0,10,-16,2051,158,158,158,158,-8126,29,-19,-95
2904,583770974,0,0,0,10,-16,2051,158,158,158,158,-8126,29,-19,-95
2908,583772959,0,0,0,10,-16,2052,158,158,158,158,-8126,29,-19,-95
2912,583774942,0,0,0,11,-16,2052,158,158,158,158,-8126,29,-19,-95
2916,583776926,0,0,0,11,-16,2052,158,158,158,158,-8126,29,-19,-95
2920,583778910,0,0,0,12,-15,2052,158,158,158,158,-8126,29,-19,-95
2924,583780894,0,0,0,12,-15,2051,158,158,158,158,-8126,29,-19,-95
2928,583782878,0,0,0,12,-14,2051,158,158,158,158,-8126,29,-19,-95
2932,583784862,0,0,0,12,-14,2051,158,158,158,158,-8126,29,-19,-95
2936,583786846,0,0,0,11,-14,2052,158,158,158,158,-8126,29,-19,-95
2940,583788829,0,0,0,11,-14,2052,158,158,158,158,-8126,29,-19,-95
2944,583790814,0,0,0,11,-14,2052,158,158,158,158,-8126,29,-19,-95
2948,583792797,0,0,0,11,-15,2052,158,158,158,158,-8126,29,-19,-95
2952,583794782,0,0,0,10,-15,2052,158,158,158,158,-8126,29,-19,-95
2956,583796766,0,0,0,10,-16,2051,158,158,158,158,-8126,29,-19,-95
2960,583798749,0,0,0,10,-16,2051,158,158,158,158,-8126,29,-19,-95
2964,583800733,0,0,0,10,-16,2051,158,158,158,158,-8126,29,-19,-95
2968,583802718,0,0,0,10,-15,2051,158,158,158,158,-8126,29,-19,-95
2972,583804702,0,0,0,10,-15,2051,158,158,158,158,-8126,29,-19,-95
2976,583806685,0,0,0,9,-15,2051,158,158,158,158,-8126,29,-19,-95
2980,583808669,0,0,0,9,-15,2050,158,158,158,158,-8126,29,-19,-95
2984,583810653,0,0,0,9,-15,2050,158,158,158,158,-8126,29,-19,-95
2988,583812637,0,0,0,9,-15,2050,158,158,158,158,-8126,29,-19,-95
2992,583814621,0,0,0,8,-15,2050,158,158,158,158,-8126,29,-19,-95
2996,583816605,0,0,0,9,-15,2050,158,158,158,158,-8126,29,-19,-95
3000,583818589,0,0,0,9,-15,2050,158,158,158,158,-8126,29,-19,-94
3004,583820573,0,0,0,10,-15,2050,158,158,158,158,-8126,29,-19,-94
3008,583822557,0,0,0,10,-15,2050,158,158,158,158,-8126,29,-19,-94
3012,583824541,0,0,0,10,-15,2050,158,158,158,158,-8126,29,-19,-94
3016,583826525,0,0,0,10,-15,2050,158,158,158,158,-8126,29,-19,-94
3020,583828509,0,0,0,9,-15,2050,158,158,158,158,-8126,29,-19,-94
3024,583830493,0,0,0,9,-15,2051,158,158,158,158,-8126,29,-19,-94
3028,583832476,0,0,0,10,-15,2051,158,158,158,158,-8126,29,-19,-94
3032,583834460,0,0,0,10,-15,2051,158,158,158,158,-8126,29,-19,-94
3036,583836445,0,0,0,10,-15,2051,158,158,158,158,-8126,29,-19,-94
3040,583838429,0,0,0,9,-16,2051,158,158,158,158,-8126,29,-19,-94
3044,583840412,0,0,0,9,-16,2050,158,158,158,158,-8126,29,-19,-94
3048,583842396,0,0,0,10,-16,2050,158,158,158,158,-8126,29,-19,-94
3052,583844380,0,0,0,10,-15,2050,158,158,158,158,-8126,29,-19,-94
3056,583846365,0,0,0,10,-16,2051,158,158,158,158,-8126,29,-19,-94
3060,583848349,0,0,0,10,-16,2051,158,158,158,158,-8126,29,-19,-94
3064,583850332,0,0,0,10,-15,2051,158,158,158,158,-8126,29,-19,-94
3068,583852320,0,0,0,11,-15,2051,158,158,158,158,-8126,29,-19,-94
3072,583854300,0,0,0,10,-15,2051,158,158,158,158,-8126,29,-19,-94
3076,583856285,0,0,0,10,-15,2050,158,158,158,158,-8126,29,-19,-94
3080,583858268,0,0,0,9,-15,2050,158,158,158,158,-8126,29,-19,-94
3084,583860252,0,0,0,9,-15,2050,158,158,158,158,-8126,29,-19,-94
3088,583862236,0,0,0,9,-15,2051,158,158,158,158,-8126,29,-19,-94
3092,583864220,0,0,0,9,-15,2051,158,158,158,158,-8126,29,-19,-94
3096,583866205,0,0,0,9,-15,2050,158,158,158,158,-8126,29,-19,-94
3100,583868188,0,0,0,9,-15,2050,158,158,158,158,-8126,29,-19,-94
3104,583870172,0,0,0,9,-15,2051,158,158,158,158,-8126,29,-19,-94
3108,583872156,0,0,0,9,-15,2051,158,158,158,158,-8126,29,-19,-94
3112,583874140,0,0,0,9,-15,2050,158,158,158,158,-8126,29,-19,-94
3116,583876123,0,0,0,9,-15,2050,158,158,158,158,-8126,29,-19,-94
3120,583878108,0,0,0,9,-15,2050,158,158,158,158,-8126,29,-19,-94
3124,583880091,0,0,0,10,-15,2051,158,158,158,158,-8126,29,-19,-94
3128,583882075,0,0,0,10,-15,2051,158,158,158,158,-8126,29,-19,-94
3132,583884060,0,0,0,11,-15,2051,158,158,158,158,-8126,29,-19,-94
3136,583886043,0,0,0,11,-15,2052,158,158,158,158,-8126,29,-19,-94
3140,583888028,0,0,0,10,-16,2052,158,158,158,158,-8126,29,-19,-94
3144,583890011,0,0,0,10,-15,2052,158,158,158,158,-8126,29,-19,-94
3148,583891995,0,0,0,9,-15,2052,158,158,158,158,-8126,29,-19,-94
3152,583893980,0,0,0,9,-15,2052,158,158,158,158,-8126,29,-19,-94
3156,583895963,0,0,0,10,-16,2052,158,158,158,158,-8126,29,-19,-94
3160,583897947,0,0,0,10,-16,2051,158,158,158,158,-8126,29,-19,-94
3164,583899931,0,0,0,10,-16,2051,158,158,158,158,-8126,29,-19,-94
3168,583901915,0,0,0,10,-15,2051,158,158,158,158,-8126,29,-19,-94
3172,583903899,0,0,0,10,-15,2050,158,158,158,158,-8126,29,-19,-94
3176,583905883,0,0,0,10,-15,2050,158,158,158,158,-8126,29,-19,-94
3180,583907867,0,0,0,10,-14,2050,158,158,158,158,-8126,29,-19,-94
3184,583909851,0,0,0,9,-14,2050,158,158,158,158,-8126,29,-19,-94
3188,583911835,0,0,0,9,-14,2050,158,158,158,158,-8126,29,-19,-94
3192,583913819,0,0,0,9,-14,2049,158,158,158,158,-8126,29,-19,-94
3196,583915803,0,0,0,9,-14,2049,158,158,158,158,-8126,29,-19,-94
3200,583917789,0,0,0,10,-14,2049,158,158,158,158,-8126,29,-19,-94
3204,583919771,0,0,0,10,-14,2049,158,158,158,158,-8126,29,-19,-94
3208,583921755,0,0,0,10,-14,2050,158,158,158,158,-8126,29,-19,-94
3212,583923738,0,0,0,10,-14,2050,158,158,158,158,-8126,29,-19,-94
3216,583925722,0,0,0,9,-15,2050,158,158,158,158,-8126,29,-19,-94
3220,583927707,0,0,0,9,-15,2050,158,158,158,158,-8126,29,-19,-94
3224,583929690,0,0,0,9,-15,2050,158,158,158,158,-8126,29,-19,-94
3228,583931675,0,0,0,9,-15,2051,158,158,158,158,-8126,29,-19,-94
3232,583933659,0,0,0,9,-16,2051,158,158,158,158,-8126,29,-19,-94
3236,583935643,0,0,0,9,-16,2051,158,158,158,158,-8126,29,-19,-94
3240,583937627,0,0,0,9,-16,2051,158,158,158,158,-8126,29,-19,-94
3244,583939610,0,0,0,9,-16,2050,158,158,158,158,-8126,29,-19,-94
3248,583941594,0,0,0,9,-15,2050,158,158,158,158,-8126,29,-19,-94
3252,583943578,0,0,0,9,-15,2050,158,158,158,158,-8126,29,-19,-94
3256,583945562,0,0,0,10,-15,2050,158,158,158,158,-8126,29,-19,-94
3260,583947546,0,0,0,10,-15,2050,158,158,158,158,-8126,29,-19,-94
3264,583949530,0,0,0,10,-15,2051,158,158,158,158,-8126,29,-19,-94
3268,583951514,0,0,0,10,-15,2051,158,158,158,158,-8126,29,-19,-94
3272,583953498,0,0,0,9,-16,2051,158,158,158,158,-8126,29,-19,-94
3276,583955482,0,0,0,9,-16,2051,158,158,158,158,-8126,29,-19,-94
3280,583957466,0,0,0,9,-16,2050,158,158,158,158,-8126,29,-19,-94
3284,583959450,0,0,0,9,-15,2051,158,158,158,158,-8126,29,-19,-94
3288,583961434,0,0,0,9,-15,2051,158,158,158,158,-8126,29,-19,-94
3292,583963418,0,0,0,9,-15,2051,158,158,158,158,-8126,29,-19,-94
3296,583965401,0,0,0,9,-15,2052,158,158,158,158,-8126,29,-19,-94
3300,583967385,0,0,0,9,-15,2052,158,158,158,158,-8126,29,-19,-94
3304,583969370,0,0,0,9,-15,2052,158,158,158,158,-8126,29,-19,-94
3308,583971353,0,0,0,8,-14,2052,158,158,158,158,-8126,29,-19,-95
3312,583973338,0,0,0,8,-14,2051,158,158,158,158,-8126,29,-19,-95
3316,583975322,0,0,0,8,-15,2051,158,158,158,158,-8126,29,-19,-95
3320,583977306,0,0,0,8,-15,2051,158,158,158,158,-8126,29,-19,-95
3324,583979289,0,0,0,8,-15,2051,158,158,158,158,-8126,29,-19,-95
3328,583981273,0,0,0,8,-15,2051,158,158,158,158,-8126,29,-19,-95
3332,583983257,0,0,0,8,-15,2051,158,158,158,158,-8126,29,-19,-95
3336,583985241,0,0,0,8,-15,2051,158,158,158,158,-8126,29,-19,-95
3340,583987225,0,0,0,9,-16,2051,158,158,158,158,-8126,29,-19,-95
3344,583989209,0,0,0,9,-16,2051,158,158,158,158,-8126,29,-19,-95
3348,583991193,0,0,0,9,-16,2051,158,158,158,158,-8126,29,-19,-95
3352,583993178,0,0,0,9,-16,2051,158,158,158,158,-8126,29,-19,-95
3356,583995161,0,0,0,9,-16,2051,158,158,158,158,-8126,29,-19,-95
3360,583997145,0,0,0,9,-16,2051,158,158,158,158,-8126,29,-19,-95
3364,583999129,0,0,0,9,-16,2051,158,158,158,158,-8126,29,-19,-95
3368,584001113,0,0,0,9,-16,2051,158,158,158,158,-8126,29,-19,-95
