loopIteration,time,gyroADC[0],gyroADC[1],gyroADC[2],accSmooth[0],accSmooth[1],accSmooth[2],motor[0],motor[1],motor[2],motor[3]
84872,43632871,-335,-200,-30,-3544,5826,-579,0,0,0,0
84876,43634855,-336,-203,-31,-3554,5861,-579,0,0,0,0
84880,43636839,-337,-205,-33,-3566,5893,-577,0,0,0,0
84884,43638823,-338,-207,-35,-3581,5926,-574,0,0,0,0
84888,43640807,-339,-209,-37,-3599,5959,-570,0,0,0,0
84892,43642791,-340,-210,-39,-3621,5993,-567,0,0,0,0
84896,43644775,-341,-212,-41,-3647,6027,-566,0,0,0,0
84900,43646759,-342,-213,-42,-3674,6062,-565,0,0,0,0
84904,43648743,-344,-214,-44,-3704,6098,-564,0,0,0,0
84908,43650727,-346,-215,-46,-3734,6134,-563,0,0,0,0
84912,43652711,-348,-215,-47,-3766,6168,-559,0,0,0,0
84916,43654695,-350,-216,-48,-3798,6200,-554,0,0,0,0
84920,43656679,-352,-216,-49,-3831,6234,-546,0,0,0,0
84924,43658663,-354,-215,-51,-3866,6270,-536,0,0,0,0
84928,43660647,-356,-215,-52,-3903,6308,-523,0,0,0,0
84932,43662631,-358,-214,-52,-3940,6347,-509,0,0,0,0
84936,43664615,-361,-213,-53,-3979,6387,-494,0,0,0,0
84940,43666599,-363,-212,-54,-4019,6429,-481,0,0,0,0
84944,43668583,-365,-211,-54,-4060,6472,-469,0,0,0,0
84948,43670567,-368,-209,-54,-4100,6515,-460,0,0,0,0
84952,43672551,-371,-208,-54,-4138,6559,-452,0,0,0,0
84956,43674535,-373,-207,-54,-4174,6603,-446,0,0,0,0
84960,43676518,-376,-206,-54,-4209,6647,-442,0,0,0,0
84964,43678502,-379,-205,-54,-4242,6690,-438,0,0,0,0
84968,43680486,-382,-205,-54,-4275,6732,-433,0,0,0,0
84972,43682470,-385,-204,-53,-4307,6772,-428,0,0,0,0
84976,43684454,-388,-204,-53,-4338,6810,-421,0,0,0,0
84980,43686438,-391,-204,-52,-4367,6844,-412,0,0,0,0
84984,43688422,-394,-204,-51,-4395,6874,-400,0,0,0,0
84988,43690406,-397,-204,-50,-4420,6899,-385,0,0,0,0
84992,43692390,-399,-204,-49,-4442,6917,-368,0,0,0,0
84996,43694374,-402,-204,-47,-4460,6927,-350,0,0,0,0
85000,43696358,-405,-204,-46,-4474,6930,-331,0,0,0,0
85004,43698342,-408,-204,-44,-4484,6926,-310,0,0,0,0
85008,43700326,-411,-205,-42,-4486,6921,-299,0,0,0,0
85012,43702310,-414,-205,-40,-4486,6908,-277,0,0,0,0
85016,43704294,-418,-205,-39,-4479,6888,-257,0,0,0,0
85020,43706278,-422,-205,-37,-4465,6861,-238,0,0,0,0
85024,43708262,-426,-206,-36,-4444,6826,-222,0,0,0,0
85028,43710246,-431,-206,-35,-4415,6782,-211,0,0,0,0
85032,43712230,-437,-207,-35,-4379,6728,-201,0,0,0,0
85036,43714214,-444,-207,-35,-4335,6664,-194,0,0,0,0
85040,43716198,-456,-208,-34,-4283,6592,-190,0,0,0,0
85044,43718182,-463,-209,-35,-4225,6513,-190,0,0,0,0
85048,43720166,-470,-210,-35,-4162,6427,-193,0,0,0,0
85052,43722150,-479,-212,-36,-4097,6336,-198,0,0,0,0
85056,43724134,-488,-213,-38,-4031,6240,-202,0,0,0,0
85060,43726118,-499,-215,-39,-3964,6139,-206,0,0,0,0
85064,43728102,-510,-216,-41,-3895,6036,-211,0,0,0,0
85068,43730086,-521,-218,-43,-3821,5930,-220,0,0,0,0
85072,43732070,-534,-220,-46,-3747,5822,-231,0,0,0,0
85076,43734054,-546,-223,-49,-3674,5713,-246,0,0,0,0
85080,43736038,-560,-226,-52,-3602,5600,-268,0,0,0,0
85084,43738022,-574,-229,-55,-3530,5480,-295,0,0,0,0
85088,43740006,-589,-233,-59,-3458,5355,-325,0,0,0,0
85092,43741989,-605,-237,-63,-3385,5225,-355,0,0,0,0
85096,43743973,-621,-242,-66,-3314,5091,-386,0,0,0,0
85100,43745957,-638,-247,-70,-3246,4952,-415,0,0,0,0
85104,43747941,-655,-252,-74,-3176,4813,-444,0,0,0,0
85108,43749925,-673,-258,-78,-3104,4675,-475,0,0,0,0
85112,43751909,-692,-265,-82,-3029,4544,-514,0,0,0,0
85116,43753893,-711,-272,-87,-2943,4410,-559,0,0,0,0
85120,43755877,-731,-280,-93,-2853,4276,-600,0,0,0,0
85124,43757861,-752,-288,-99,-2762,4143,-634,0,0,0,0
85128,43759845,-773,-296,-106,-2671,4009,-661,0,0,0,0
85132,43761829,-794,-303,-113,-2583,3872,-682,0,0,0,0
85136,43763813,-815,-311,-120,-2494,3727,-700,0,0,0,0
85140,43765797,-837,-318,-128,-2400,3578,-707,0,0,0,0
85144,43767781,-859,-325,-136,-2295,3432,-707,0,0,0,0
85148,43769765,-880,-332,-145,-2184,3291,-705,0,0,0,0
85152,43771749,-902,-339,-154,-2074,3155,-702,0,0,0,0
85156,43773733,-923,-346,-164,-1973,3034,-697,0,0,0,0
85160,43775717,-945,-353,-174,-1880,2928,-693,0,0,0,0
85164,43777701,-966,-359,-185,-1837,2880,-692,0,0,0,0
85168,43779685,-988,-365,-197,-1756,2793,-696,0,0,0,0
85172,43781669,-1010,-372,-210,-1682,2719,-712,0,0,0,0
85176,43783653,-1032,-378,-223,-1610,2644,-723,0,0,0,0
85180,43785637,-1053,-384,-237,-1505,2562,-719,0,0,0,0
85184,43787621,-1073,-391,-254,-1342,2480,-706,0,0,0,0
85188,43789605,-1094,-397,-273,-1180,2397,-703,0,0,0,0
85192,43791589,-1115,-403,-293,-1002,2295,-723,0,0,0,0
85196,43793572,-1137,-411,-314,-826,2182,-740,0,0,0,0
85200,43795556,-1158,-418,-336,-680,2074,-692,0,0,0,0
85204,43797540,-1173,-422,-360,-519,2009,-555,0,0,0,0
85208,43799524,-1185,-425,-387,-354,1980,-396,0,0,0,0
85212,43801508,-1194,-425,-415,-190,1919,-248,0,0,0,0
85216,43803492,-1203,-426,-443,-66,1817,-123,0,0,0,0
85220,43805476,-1210,-426,-470,49,1692,-25,0,0,0,0
85224,43807460,-1217,-426,-498,164,1569,51,0,0,0,0
85228,43809444,-1225,-426,-526,277,1439,108,0,0,0,0
85232,43811428,-1233,-426,-555,404,1313,125,0,0,0,0
85236,43813412,-1243,-427,-585,558,1170,83,0,0,0,0
85240,43815396,-1255,-430,-616,713,998,-15,0,0,0,0
85244,43817380,-1271,-435,-647,873,778,-147,0,0,0,0
85248,43819364,-1288,-442,-678,1034,524,-270,0,0,0,0
85252,43821348,-1307,-449,-708,1167,208,-325,0,0,0,0
85256,43823332,-1322,-451,-734,1170,-187,-164,0,0,0,0
85260,43825316,-1332,-448,-752,988,-634,108,0,0,0,0
85264,43827300,-1339,-436,-761,744,-1033,384,0,0,0,0
85268,43829284,-1347,-421,-764,495,-1375,637,0,0,0,0
85272,43831268,-1352,-403,-766,277,-1670,854,0,0,0,0
85276,43833252,-1355,-387,-766,98,-1881,1022,0,0,0,0
85280,43835236,-1358,-370,-768,-33,-2007,1138,0,0,0,0
85284,43837219,-1361,-353,-770,-137,-2080,1221,0,0,0,0
85288,43839203,-1364,-335,-772,-219,-2130,1286,0,0,0,0
85292,43841187,-1366,-318,-775,-283,-2142,1330,0,0,0,0
85296,43843171,-1369,-301,-778,-327,-2135,1354,0,0,0,0
85300,43845155,-1371,-284,-782,-365,-2127,1370,0,0,0,0
85304,43847139,-1373,-266,-785,-395,-2126,1378,0,0,0,0
85308,43849123,-1375,-249,-788,-420,-2120,1370,0,0,0,0
85312,43851107,-1377,-232,-790,-457,-2124,1356,0,0,0,0
85316,43853091,-1379,-215,-791,-507,-2139,1339,0,0,0,0
85320,43855075,-1381,-199,-793,-541,-2141,1316,0,0,0,0
85324,43857059,-1383,-183,-794,-555,-2139,1305,0,0,0,0
85328,43859043,-1385,-167,-795,-575,-2135,1284,0,0,0,0
85332,43861027,-1386,-151,-795,-592,-2131,1267,0,0,0,0
85336,43863011,-1388,-135,-796,-612,-2125,1255,0,0,0,0
85340,43864995,-1389,-119,-797,-638,-2109,1250,0,0,0,0
85344,43866979,-1391,-102,-798,-670,-2085,1248,0,0,0,0
85348,43868963,-1391,-85,-807,-701,-2058,1251,0,0,0,0
85352,43870947,-1392,-68,-804,-732,-2031,1254,0,0,0,0
85356,43872931,-1393,-51,-803,-756,-2005,1253,0,0,0,0
85360,43874915,-1394,-34,-803,-778,-1978,1245,0,0,0,0
85364,43876898,-1394,-17,-804,-796,-1953,1233,0,0,0,0
85368,43878882,-1394,-1,-804,-815,-1930,1220,0,0,0,0
85372,43880866,-1394,16,-804,-835,-1910,1207,0,0,0,0
85376,43882850,-1394,32,-804,-855,-1888,1199,0,0,0,0
85380,43884834,-1394,48,-804,-877,-1866,1193,0,0,0,0
85384,43886818,-1393,65,-804,-898,-1841,1187,0,0,0,0
85388,43888802,-1392,81,-803,-919,-1816,1181,0,0,0,0
85392,43890786,-1391,97,-803,-937,-1788,1174,0,0,0,0
85396,43892770,-1390,114,-802,-953,-1760,1164,0,0,0,0
85400,43894754,-1389,130,-802,-967,-1730,1154,0,0,0,0
85404,43896738,-1388,146,-801,-980,-1701,1145,0,0,0,0
85408,43898722,-1386,162,-801,-996,-1674,1137,0,0,0,0
85412,43900706,-1385,178,-800,-1010,-1646,1131,0,0,0,0
85416,43902690,-1383,194,-799,-1024,-1617,1125,0,0,0,0
85420,43904674,-1381,210,-798,-1040,-1590,1118,0,0,0,0
85424,43906658,-1379,225,-797,-1054,-1562,1111,0,0,0,0
85428,43908642,-1376,241,-796,-1064,-1531,1104,0,0,0,0
85432,43910626,-1374,257,-794,-1075,-1502,1097,0,0,0,0
